City_ID,City,Lat,Lng,Max Temp,Humidity,Cloudiness,Wind Speed,Country,Date
0,kodiak,57.79,-152.4072,7.73,71,100,4.12,US,1727404077
1,saipan,15.1355,145.701,28.39,83,75,5.14,MP,1727404079
2,wailua homesteads,22.0669,-159.378,28.44,70,20,5.14,US,1727404080
3,astaneh-ye ashrafiyeh,37.2596,49.9444,18.09,93,72,2.24,IR,1727404082
4,adamstown,-25.066,-130.1015,21.56,89,85,4.37,PN,1727404083
5,panino,51.6467,40.1346,12.4,35,89,5.08,RU,1727404084
6,colonia,50.9333,6.95,14.42,73,0,6.17,DE,1727404086
7,puerto natales,-51.7236,-72.4875,5.22,92,100,5.1,CL,1727404087
8,georgetown,5.4112,100.3354,29.97,77,20,1.54,MY,1727404088
9,tazovsky,67.4667,78.7,-1.01,86,100,4.63,RU,1727404090
10,anadyr,64.75,177.4833,4.28,64,100,3.0,RU,1727404091
11,edinburgh of the seven seas,-37.0676,-12.3116,12.55,93,100,5.74,SH,1727404093
12,grytviken,-54.2811,-36.5092,-1.29,74,60,9.58,GS,1727404094
13,shihezi,44.3,86.0333,8.52,83,100,4.37,CN,1727404095
14,hebi,35.8992,114.1925,21.09,68,94,2.19,CN,1727404097
15,bethel,41.3712,-73.414,22.05,91,100,0.0,US,1727404098
16,newman,37.3138,-121.0208,25.58,53,0,0.45,US,1727404099
17,walvis bay,-22.9575,14.5053,15.38,72,58,5.16,NA,1727404101
18,adigrat,14.277,39.462,13.87,75,9,0.81,ET,1727404102
19,zaporizhia,47.8167,35.1833,16.49,69,95,3.35,UA,1727404104
20,blackmans bay,-43.0167,147.3167,15.96,53,22,0.45,AU,1727404105
21,west island,-12.1568,96.8225,26.99,78,20,4.63,CC,1727404106
22,bilibino,68.0546,166.4372,-2.52,75,98,1.01,RU,1727404108
23,bredasdorp,-34.5322,20.0403,13.12,90,96,1.58,ZA,1727404109
24,zaki biam,7.5167,9.6167,22.93,96,100,2.25,NG,1727404110
25,port-aux-francais,-49.35,70.2167,4.25,86,100,16.19,TF,1727404112
26,carnarvon,-24.8667,113.6333,20.3,61,97,4.47,AU,1727404113
27,caibarien,22.5206,-79.4669,26.9,86,100,4.86,CU,1727404116
28,kanker,20.2719,81.4931,24.38,91,100,3.23,IN,1727404117
29,iqaluit,63.7506,-68.5145,3.85,93,75,0.0,CA,1727404119
30,horta,38.5333,-28.6333,22.79,83,93,5.81,PT,1727404120
31,college,64.8569,-147.8028,6.99,80,75,2.57,US,1727404123
32,jamaame,0.0697,42.745,24.0,83,19,3.98,SO,1727404124
33,kavaratti,10.5669,72.642,27.41,81,100,6.62,IN,1727404126
34,north bend,43.4065,-124.2243,15.13,77,0,1.54,US,1727404127
35,tralee,52.2704,-9.7026,9.27,85,100,8.55,IE,1727404128
36,susuman,62.7833,148.1667,7.24,52,2,1.42,RU,1727404130
37,flying fish cove,-10.4217,105.6791,26.82,73,75,4.12,CX,1727404131
38,hovd,48.0056,91.6419,6.07,56,100,2.69,MN,1727404133
39,tiksi,71.6872,128.8694,0.95,99,100,4.93,RU,1727404134
40,moyynkum,44.2914,72.9469,8.77,30,0,3.62,KZ,1727404135
41,san luis de la loma,17.2706,-100.8939,24.84,95,100,5.31,MX,1727404137
42,longyearbyen,78.2186,15.6401,-0.09,64,40,8.23,SJ,1727404138
43,greymouth,-42.4667,171.2,10.35,56,100,6.97,NZ,1727404139
44,la passe,45.5549,-0.8967,15.16,76,75,11.24,FR,1727404141
45,waitangi,-43.9535,-176.5597,8.79,92,100,6.26,NZ,1727404142
46,callao,-12.0667,-77.15,17.16,77,100,2.06,PE,1727404144
47,alice springs,-23.7,133.8833,23.75,29,0,5.66,AU,1727404145
48,pasuquin,18.3328,120.6177,28.97,89,75,1.54,PH,1727404146
49,port mathurin,-19.6833,63.4167,22.19,77,6,8.85,MU,1727404148
50,port elizabeth,-33.918,25.5701,13.51,88,0,1.03,ZA,1727404149
51,stanley,54.868,-1.6985,9.04,84,20,7.2,GB,1727404150
52,igarka,67.4667,86.5833,1.29,87,100,2.67,RU,1727404152
53,ribeira grande,38.5167,-28.7,23.21,83,97,5.81,PT,1727404153
54,albany,42.6001,-73.9662,17.23,81,100,0.85,US,1727404155
55,luderitz,-26.6481,15.1594,15.69,60,100,7.68,NA,1727404156
56,alaghsas,17.0187,8.0168,32.76,24,2,3.25,NE,1727404157
57,ulanhot,46.0833,122.0833,17.22,56,64,6.36,CN,1727404159
58,arkhangel'sk,64.5401,40.5433,14.06,100,75,4.0,RU,1727404160
59,kitob,39.0843,66.8332,16.88,52,58,1.8,UZ,1727404161
60,pisco,-13.7,-76.2167,17.03,82,100,4.12,PE,1727404164
61,vilyuchinsk,52.9306,158.4028,16.15,65,100,2.04,RU,1727404166
62,carbonear,47.7332,-53.2148,10.69,96,62,2.72,CA,1727404167
63,karratha,-20.7377,116.8463,26.53,57,10,7.73,AU,1727404168
64,plastun,44.7561,136.2939,19.75,43,0,1.38,RU,1727404170
65,oranjemund,-28.55,16.4333,12.91,90,100,4.75,NA,1727404171
66,kattivakkam,13.2167,80.3167,28.97,92,100,3.14,IN,1727404173
67,nyurba,63.2842,118.3319,5.36,67,89,1.79,RU,1727404174
68,lihue,21.9789,-159.3672,28.77,67,20,5.14,US,1727404175
69,lebu,-37.6167,-73.65,6.52,80,100,2.07,CL,1727404178
70,atafu village,-8.5421,-172.5159,25.58,91,100,9.05,TK,1727404179
71,den helder,52.9599,4.7593,13.99,82,75,12.35,NL,1727404181
72,mount isa,-20.7333,139.5,27.87,30,0,4.63,AU,1727404182
73,fayroz koh,34.5195,65.2509,7.29,67,0,0.69,AF,1727404183
74,gumdag,39.2061,54.5906,17.0,25,7,8.01,TM,1727404185
75,ngama,11.7833,17.1667,26.31,70,34,2.55,TD,1727404186
76,howrah,22.5892,88.3103,28.0,94,40,5.66,IN,1727404188
77,fale old settlement,-9.3852,-171.2468,25.28,84,100,5.32,TK,1727404189
78,shingu,33.7333,135.9833,27.22,73,95,5.1,JP,1727404190
79,ust-nera,64.5667,143.2,6.23,67,56,2.31,RU,1727404192
80,lichinga,-13.3128,35.2406,16.05,100,0,4.12,MZ,1727404193
81,antsiranana,-12.2787,49.2917,22.09,74,12,7.1,MG,1727404194
82,invercargill,-46.4,168.35,7.79,91,100,3.58,NZ,1727404196
83,enewetak,11.3474,162.3373,28.87,75,17,5.58,MH,1727404197
84,westport,41.1415,-73.3579,22.53,90,100,1.54,US,1727403958
85,kushiro,42.975,144.3747,18.53,100,75,3.6,JP,1727404200
86,cabo san lucas,22.8909,-109.9124,28.17,62,20,4.12,MX,1727404020
87,borisovka,50.6236,35.9903,17.25,50,88,5.7,RU,1727404203
88,badger,64.8,-147.5333,6.95,81,100,2.57,US,1727404204
89,vilyuysk,63.7553,121.6247,4.82,72,100,2.1,RU,1727404206
90,nyandoma,61.669,40.1991,12.67,58,100,4.51,RU,1727404207
91,jamestown,42.097,-79.2353,17.8,80,40,2.57,US,1727404208
92,gudibanda,13.6694,77.6983,21.39,82,100,3.59,IN,1727403835
93,saldanha,-33.0117,17.9442,12.03,95,33,4.32,ZA,1727404211
94,paracuru,-3.41,-39.0306,26.73,82,37,7.28,BR,1727404212
95,ivdel',60.6911,60.4206,10.79,77,100,2.64,RU,1727404213
96,utrik,11.2278,169.8474,28.74,76,100,6.0,MH,1727404215
97,brookings,44.3114,-96.7984,20.1,57,0,4.12,US,1727404216
98,duong dong,10.2167,103.9667,27.32,81,100,4.42,VN,1727404217
99,gourcy,13.2167,-2.35,26.42,74,4,2.87,BF,1727404218
100,aginskoye,51.1,114.53,7.51,65,100,3.78,RU,1727404220
101,vorgashor,67.5833,63.95,6.07,99,99,4.72,RU,1727404221
102,margate,51.3813,1.3862,12.15,81,80,0.45,GB,1727404222
103,amga,60.8953,131.9608,13.48,63,100,3.9,RU,1727404224
104,mangrol,21.1167,70.1167,25.61,93,100,4.44,IN,1727404225
105,margaret river,-33.95,115.0667,13.33,72,38,7.69,AU,1727404226
106,klyuchi,52.2667,79.1667,5.55,56,90,4.2,RU,1727404227
107,chernyshevskiy,63.0128,112.4714,1.24,97,100,1.3,RU,1727404229
108,conduaga,8.862,117.4893,29.93,67,96,1.98,PH,1727404230
109,papatowai,-46.5619,169.4708,7.05,84,75,7.11,NZ,1727404231
110,acarau,-2.8856,-40.12,25.3,85,22,8.05,BR,1727404232
111,udachny,66.4167,112.4,3.32,69,75,2.84,RU,1727404234
112,pionerskiy,54.9508,20.2275,16.91,85,100,10.16,RU,1727404235
113,avarua,-21.2078,-159.775,23.03,64,100,3.09,CK,1727404236
114,lompoc,34.6391,-120.4579,18.16,88,100,3.6,US,1727404237
115,m'tsangamouji,-12.7594,45.0836,22.62,74,6,2.14,YT,1727404239
116,kavieng,-2.5744,150.7967,28.66,72,50,0.91,PG,1727404242
117,tolanaro,-25.0319,46.9987,22.04,94,20,1.03,MG,1727404243
118,polyarnyy,69.1989,33.4478,7.57,85,98,7.98,RU,1727404244
119,badiyah,22.45,58.8,26.32,56,88,2.41,OM,1727404246
120,gwadar,25.1216,62.3254,26.53,83,92,2.42,PK,1727404247
121,bubaque,11.2833,-15.8333,25.89,84,100,2.83,GW,1727404248
122,kathleen,28.1209,-82.0231,27.64,93,100,12.35,US,1727404249
123,quchan,37.106,58.5095,11.51,69,0,2.39,IR,1727404251
124,mokhsogollokh,61.4681,128.9203,8.18,94,100,2.74,RU,1727404252
125,ustyuzhna,58.8394,36.4321,16.05,47,100,6.57,RU,1727404253
126,tinogasta,-28.0632,-67.5649,11.66,52,0,0.51,AR,1727404255
127,nema,57.5067,50.5011,7.02,44,6,3.53,RU,1727404256
128,umm kaddadah,13.6017,26.6876,29.58,28,21,0.27,SD,1727404257
129,ilulissat,69.2167,-51.1,4.01,75,100,3.6,GL,1727404260
130,pont rouge,48.8833,-72.0825,13.16,98,100,1.18,CA,1727404261
131,tenenkou,14.4572,-4.9169,26.17,67,56,2.12,ML,1727404262
132,fort st. john,56.2499,-120.8529,8.94,49,75,3.6,CA,1727404263
133,filadelfia,39.9523,-75.1638,23.14,94,100,0.0,US,1727404265
134,puerto ayora,-0.7393,-90.3518,20.31,94,100,2.68,EC,1727404266
135,male,4.1748,73.5089,28.97,84,75,6.17,MV,1727403713
136,pahlgam,34.0333,75.3333,14.91,78,63,1.56,IN,1727404268
137,nakasongola,1.3089,32.4564,18.82,93,81,1.44,UG,1727404270
138,naracoorte,-36.9579,140.7383,17.21,39,0,2.08,AU,1727404271
139,tamale,9.4008,-0.8393,23.34,94,84,2.0,GH,1727404272
140,mahdia,35.5047,11.0622,24.97,78,1,5.61,TN,1727404273
141,whitehorse,60.7161,-135.0538,7.43,65,40,2.57,CA,1727404275
142,aasiaat,68.7098,-52.8699,1.98,73,100,1.05,GL,1727404276
143,naze,28.3667,129.4833,29.51,77,13,6.25,JP,1727404277
144,nefteyugansk,61.0998,72.6035,2.45,74,100,4.44,RU,1727404278
145,yanacancha,-10.2411,-76.6456,5.76,91,78,1.57,PE,1727404279
146,williston,48.147,-103.618,19.46,36,0,1.34,US,1727404281
147,ushuaia,-54.8,-68.3,5.79,81,75,11.32,AR,1727404284
148,mugia,43.1041,-9.2179,15.51,73,69,8.7,ES,1727404285
149,berdigestyakh,62.0989,126.6992,1.28,99,100,3.4,RU,1727404287
150,nova sintra,14.8667,-24.7167,23.47,84,100,1.5,CV,1727404288
151,mermoz boabab,14.7065,-17.4758,25.31,81,100,3.32,SN,1727404291
152,usogorsk,63.4106,48.6872,11.83,56,100,5.25,RU,1727404293
153,florida,28.7505,-82.5001,28.28,90,100,9.39,US,1727404294
154,'alaqahdari dishu,30.4374,63.313,22.76,37,0,6.57,AF,1727404295
155,palikir - national government center,6.9248,158.1611,31.47,79,75,2.57,FM,1727404296
156,port lincoln,-34.7333,135.8667,17.3,46,34,6.63,AU,1727404298
157,ulladulla,-35.35,150.4667,11.79,74,100,2.27,AU,1727404241
158,dakhla,23.6848,-15.958,21.03,80,50,7.31,EH,1727404300
159,kayangel,8.0823,134.7173,29.05,75,7,3.19,PW,1727404301
160,cumana,10.4635,-64.1775,26.53,82,62,2.53,VE,1727404303
161,kerikeri,-35.2268,173.9474,12.25,96,100,3.58,NZ,1727404304
162,yellowknife,62.456,-114.3525,8.56,93,75,2.57,CA,1727404305
163,celestun,20.8667,-90.4,27.38,81,48,2.02,MX,1727404307
164,linfen,36.0889,111.5189,25.24,48,24,1.91,CN,1727404309
165,st. john's,47.5649,-52.7093,11.1,97,100,3.58,CA,1727404084
166,baki,-7.6128,110.7839,32.81,60,42,2.33,ID,1727404313
167,uturoa,-16.7333,-151.4333,26.67,78,8,4.1,PF,1727404314
168,liwale,-9.7667,37.9333,18.58,97,53,1.15,TZ,1727404224
169,flekkefjord,58.2971,6.6607,8.24,71,100,1.31,NO,1727404317
170,tobelo,1.7284,128.0095,28.46,73,100,1.42,ID,1727404318
171,santa cruz,-17.8,-63.1667,21.7,64,75,9.26,BO,1727404319
172,san ignacio,17.1561,-89.0714,28.08,83,75,0.0,BZ,1727404320
173,guanica,17.9716,-66.908,27.99,59,87,2.58,PR,1727404322
174,freshwater,50.692,-1.5079,12.74,92,100,6.42,GB,1727404323
175,vadso,70.0744,29.7487,7.09,87,75,3.6,NO,1727404324
176,babor - ville,36.4899,5.5393,14.01,57,9,0.93,DZ,1727404326
177,buka,40.8108,69.1986,17.3,55,100,2.96,UZ,1727404327
178,talnakh,69.4865,88.3972,1.4,95,100,3.46,RU,1727404328
179,al ghayzah,16.2079,52.176,26.32,84,87,1.32,YE,1727404330
180,midvagur,62.0511,-7.1939,5.46,81,75,4.63,FO,1727404331
181,ratnagiri,16.9833,73.3,27.46,84,100,5.74,IN,1727404332
182,fairbanks,64.8378,-147.7164,7.0,79,100,2.57,US,1727404334
183,north haven,41.3909,-72.8595,22.38,95,100,1.54,US,1727404335
184,kitimat,54.0524,-128.6534,8.21,64,100,0.45,CA,1727404336
185,wanxian,30.8039,108.3897,33.16,37,0,2.25,CN,1727404337
186,mooloolaba,-26.6833,153.1167,25.17,64,91,5.33,AU,1727404339
187,keflavik,64.0049,-22.5624,6.24,81,100,1.03,IS,1727404340
188,saynshand,44.8824,110.1163,20.39,55,96,6.5,MN,1727404222
189,nouadhibou,20.931,-17.0347,28.99,54,100,5.14,MR,1727404342
190,guarapari,-20.6667,-40.4975,24.38,84,0,6.17,BR,1727404344
191,cabras,39.93,8.5314,20.72,72,12,2.44,IT,1727404345
192,kailua-kona,19.6406,-155.9956,27.98,80,75,3.09,US,1727404346
193,komsomolets,53.7453,62.0708,9.18,66,31,3.68,KZ,1727404348
194,arkalyk,50.2486,66.9114,5.94,46,10,1.82,KZ,1727404349
195,laizhou,37.1717,119.9214,24.01,42,7,2.48,CN,1727404350
196,kapuskasing,49.4169,-82.4331,11.05,100,0,0.0,CA,1727404351
197,moussoro,13.6408,16.4901,28.81,55,12,2.73,TD,1727404353
198,kununurra,-15.7667,128.7333,31.99,55,11,4.12,AU,1727404066
199,bhamo,24.2667,97.2333,28.11,71,98,0.95,MM,1727404355
200,sevierville,35.8681,-83.5618,21.2,97,100,3.6,US,1727404356
201,kencong,-8.2833,113.3667,30.3,63,26,2.85,ID,1727404358
202,hasaki,35.7333,140.8333,25.16,96,100,6.24,JP,1727404359
203,isafjordur,66.0755,-23.124,3.42,98,100,2.73,IS,1727404360
204,puerto carreno,6.189,-67.4859,26.76,83,95,1.48,CO,1727404361
205,labuan,5.2767,115.2417,30.2,74,20,1.03,MY,1727404365
206,termoli,41.9888,14.9895,21.69,66,0,4.15,IT,1727404366
207,minas de marcona,-15.2119,-75.1103,11.41,88,93,4.89,PE,1727404367
208,dudinka,69.4058,86.1778,-0.11,89,100,4.38,RU,1727404370
209,soligalich,59.0778,42.2864,13.04,40,100,5.25,RU,1727404371
210,hawaiian paradise park,19.5933,-154.9731,26.04,82,100,4.12,US,1727404256
211,tromso,69.6496,18.957,5.01,81,75,6.17,NO,1727404374
212,sadjoavato,-12.6334,49.349,19.81,78,20,3.38,MG,1727404375
213,shalkar,47.8288,59.6258,9.39,41,0,2.99,KZ,1727404378
214,puerto deseado,-47.7503,-65.8938,10.07,44,88,10.96,AR,1727404379
215,darazo,10.9938,10.4118,23.21,84,91,2.69,NG,1727404380
216,salinopolis,-0.6136,-47.3561,26.01,83,6,3.56,BR,1727404381
217,weno,7.4515,151.8468,28.97,84,100,2.06,FM,1727404383
218,hotan,37.0997,79.9269,25.48,19,0,4.1,CN,1727404384
219,afaahiti,-17.75,-149.2833,26.93,81,22,4.24,PF,1727404385
220,akureyri,65.6835,-18.0878,2.96,87,100,2.57,IS,1727404386
221,nabire,-3.3667,135.4833,30.1,64,58,2.02,ID,1727404388
222,guerrero negro,27.9769,-114.0611,18.73,89,2,8.03,MX,1727404389
223,hermanus,-34.4187,19.2345,13.78,91,83,2.23,ZA,1727404390
224,paramonga,-10.6667,-77.8333,16.63,85,78,3.21,PE,1727404391
225,samfya,-11.3649,29.5565,18.97,38,1,2.3,ZM,1727404393
226,corpus christi,27.8006,-97.3964,27.77,78,0,2.06,US,1727404394
227,sondrio,46.169,9.8692,19.42,97,100,1.25,IT,1727404395
228,neyshabur,36.2133,58.7958,15.28,56,12,0.79,IR,1727404396
229,boa vista,2.8197,-60.6733,29.99,70,40,1.54,BR,1727404398
230,jawf al maqbabah,13.8378,45.8349,27.72,36,53,1.59,YE,1727404399
231,hithadhoo,-0.6,73.0833,28.18,74,100,6.0,MV,1727404400
232,marat,25.0701,45.4615,24.83,29,39,1.92,SA,1727404402
233,dongola,19.1667,30.4833,29.27,24,15,4.57,SD,1727404403
234,lazaro cardenas,17.9583,-102.2,23.79,95,100,3.13,MX,1727404404
235,san patricio,28.017,-97.5169,27.13,41,0,2.46,US,1727404405
236,san pedro del parana,-26.8333,-56.2,16.12,91,96,2.88,PY,1727404407
237,olonkinbyen,70.9221,-8.7187,0.3,94,100,14.59,SJ,1727404408
238,coquimbo,-29.9533,-71.3436,12.85,87,0,2.57,CL,1727404409
239,langxiang,46.95,128.8833,17.66,48,6,1.2,CN,1727404411
240,kapa'a,22.0752,-159.319,29.18,68,20,5.14,US,1727404412
241,rakvere,59.3464,26.3558,13.48,93,100,5.85,EE,1727404413
242,muynoq,43.7683,59.0214,14.27,43,0,7.2,UZ,1727404414
243,gizo,-8.103,156.8419,28.8,73,28,0.26,SB,1727404416
244,broken hill,-31.95,141.4333,18.38,30,0,5.73,AU,1727404288
245,lae,-6.7221,146.9847,32.37,64,16,3.61,PG,1727404418
246,mersa matruh,31.3525,27.2453,24.11,60,0,2.57,EG,1727404419
247,la'ie,21.6477,-157.9253,29.98,71,83,1.79,US,1727404421
248,kirakira,-10.4544,161.9205,29.07,71,20,6.06,SB,1727404422
249,nagqu,31.5,92.0,5.55,76,100,3.44,CN,1727404423
250,petropavlovsk-kamchatsky,53.0452,158.6483,15.33,44,0,6.0,RU,1727404424
251,caluso,45.305,7.8957,14.74,97,17,1.77,IT,1727404426
252,aracati,-4.5617,-37.7697,24.6,76,3,5.73,BR,1727404428
253,bomdila,27.25,92.4,16.32,90,100,1.27,IN,1727404429
254,sarakhs,36.5449,61.1577,17.88,37,28,5.29,IR,1727404431
255,hamilton,39.1834,-84.5333,20.79,93,100,5.14,US,1727404432
256,madinat ash shamal,26.1293,51.2009,31.87,68,10,5.88,QA,1727404433
257,sinabang,2.4803,96.3801,29.14,69,48,2.0,ID,1727404435
258,constantia,44.1833,28.65,17.61,86,62,4.68,RO,1727404436
259,broome,42.2506,-75.833,16.6,85,100,2.06,US,1727404437
260,yamaga,33.0167,130.6833,30.1,45,27,1.89,JP,1727404438
261,thompson,55.7435,-97.8558,21.09,64,75,3.09,CA,1727404440
262,warrnambool,-38.3833,142.4833,13.6,59,2,1.25,AU,1727404441
263,howard springs,-12.497,131.047,33.26,72,42,1.16,AU,1727404442
264,cirebon,-6.7063,108.557,31.27,57,97,4.14,ID,1727404330
265,rongelap,11.1635,166.8941,28.95,74,90,6.68,MH,1727404445
266,kyshtovka,56.555,76.6271,0.91,68,12,2.2,RU,1727404446
267,arraial do cabo,-22.9661,-42.0278,22.86,83,0,13.06,BR,1727404447
268,lycksele,64.5954,18.6735,-0.07,93,100,0.0,SE,1727404449
269,rio grande,-32.035,-52.0986,15.55,93,100,7.55,BR,1727404450
270,shalqar,47.8333,59.6,9.42,41,0,2.98,KZ,1727404451
271,mezhdurechenskiy,59.6,65.9333,7.7,91,99,2.37,RU,1727404452
272,nemuro,43.3236,145.575,16.68,95,86,5.82,JP,1727404361
273,lepsy,46.235,78.9456,7.51,45,0,5.73,KZ,1727404455
274,jijel,36.8205,5.7667,18.97,77,0,1.03,DZ,1727404456
275,eforie sud,44.0229,28.6494,17.67,86,73,4.6,RO,1727404457
276,suva,-18.1416,178.4415,27.71,57,40,4.63,FJ,1727404415
277,zhuanghe,39.7008,122.9911,22.09,43,0,1.77,CN,1727404460
278,waingapu,-9.6567,120.2641,30.54,61,9,4.92,ID,1727404461
279,mount gambier,-37.8333,140.7667,17.67,36,5,1.12,AU,1727404228
280,choibalsan,48.0667,114.5,16.62,47,100,3.3,MN,1727404284
281,copala,16.65,-98.9833,23.28,97,100,2.23,MX,1727404465
282,pizarro,4.9533,-77.366,25.18,88,100,1.13,CO,1727404468
283,chonchi,-42.6128,-73.8092,5.62,93,100,1.09,CL,1727404469
284,christchurch,-43.5333,172.6333,13.16,44,75,3.09,NZ,1727404200
285,vanimo,-2.6741,141.3028,30.12,63,52,3.18,PG,1727404472
286,tres arroyos,-38.3739,-60.2798,6.82,47,0,4.26,AR,1727404473
287,kardla,58.9978,22.7492,15.59,90,97,7.74,EE,1727404475
288,norrtalje,59.758,18.705,13.9,96,100,4.72,SE,1727404476
289,sangmelima,2.9333,11.9833,19.59,100,100,1.15,CM,1727404477
290,ziro,27.6333,93.8333,14.41,98,98,0.25,IN,1727404462
291,northam,51.0333,-4.2167,10.7,95,100,8.94,GB,1727404480
292,linxia chengguanzhen,35.6003,103.2064,20.36,44,89,1.54,CN,1727404481
293,belmonte,-15.8631,-38.8828,22.32,84,9,2.68,BR,1727404482
294,emerald,-23.5333,148.1667,27.97,37,59,3.89,AU,1727404483
295,zaozersk,69.4005,32.4476,6.97,92,100,5.41,RU,1727404485
296,tura,25.5198,90.2201,22.16,97,100,1.41,IN,1727404486
297,sevlievo,43.0258,25.1136,18.75,58,4,1.74,BG,1727404487
298,ust'-ilimsk,58.0006,102.6619,4.93,54,100,3.79,RU,1727404349
299,valdivia,-39.8142,-73.2459,6.05,91,92,0.66,CL,1727404489
300,prince rupert,54.3161,-130.3201,10.83,71,100,10.29,CA,1727404491
301,suntar,62.1444,117.6319,7.15,62,35,2.07,RU,1727404493
302,beidaihehaibin,39.8222,119.5181,21.01,57,54,1.43,CN,1727404496
303,sihanoukville,10.6093,103.5296,29.97,79,40,1.54,KH,1727404497
304,vila velha,-20.3297,-40.2925,23.97,82,75,6.26,BR,1727404498
305,valparaiso,-33.0393,-71.6273,11.8,71,0,2.57,CL,1727404499
306,stantsiya novyy afon,43.0806,40.8383,19.47,66,100,2.58,GE,1727404501
307,ambodifotatra,-16.9833,49.85,23.6,72,6,4.47,MG,1727404504
308,aykhal,66.0,111.5,1.12,76,93,3.71,RU,1727404505
309,quang ngai,15.1167,108.8,30.74,64,87,1.91,VN,1727404506
310,ishigaki,24.3448,124.1572,31.07,79,75,8.23,JP,1727404508
311,haiku-pauwela,20.9219,-156.3051,27.34,70,40,10.28,US,1727404509
312,chervonohryhorivka,47.623,34.5389,15.88,77,75,3.43,UA,1727404511
313,praia da vitoria,38.7333,-27.0667,22.14,78,40,2.28,PT,1727404512
314,ancud,-41.8697,-73.8203,5.66,77,99,4.04,CL,1727404513
315,faya-largeau,17.9257,19.1043,32.44,23,0,7.61,TD,1727404515
316,tercan,39.7794,40.3925,11.52,58,59,0.73,TR,1727404516
317,castro,-24.7911,-50.0119,22.74,41,91,3.29,BR,1727404517
318,belyy yar,53.6039,91.3903,2.94,70,0,2.0,RU,1727404519
319,qaqortoq,60.7167,-46.0333,4.42,85,15,3.94,GL,1727404520
320,wajir,1.7471,40.0573,22.99,70,35,6.24,KE,1727404521
321,yermentau,51.6214,73.1069,2.93,57,58,3.07,KZ,1727404523
322,popondetta,-8.7537,148.2534,29.89,68,77,2.64,PG,1727404524
323,nova vicosa,-17.8919,-39.3719,23.75,80,0,5.08,BR,1727404526
324,kolonia town,6.964,158.206,32.06,79,75,2.57,FM,1727404527
325,paulo afonso,-9.4061,-38.2147,23.16,68,0,5.14,BR,1727404528
326,kamaishi,39.2667,141.8833,23.06,85,92,1.51,JP,1727404530
327,ilomantsi,62.6716,30.9328,11.58,95,99,4.2,FI,1727404531
328,san martin,-33.081,-68.4681,14.26,24,7,3.57,AR,1727404532
329,sidhpura,27.6333,78.8833,24.87,89,100,5.01,IN,1727404534
330,salekhard,66.53,66.6019,4.4,92,94,3.82,RU,1727404535
331,arica,-18.475,-70.3042,17.13,72,100,2.06,CL,1727404536
332,mandalgovi,45.7625,106.2708,15.11,58,100,1.06,MN,1727404025
333,saint-pierre,-21.3393,55.4781,22.82,78,100,2.57,RE,1727404539
334,okakarara,-20.5833,17.4333,20.11,38,79,0.6,NA,1727404541
335,gaspra,44.4333,34.1,17.1,75,37,0.88,UA,1727404542
336,bikenibeu village,1.3673,173.1241,31.98,58,20,3.6,KI,1727404543
337,box elder,41.5005,-112.8764,21.82,38,0,1.91,US,1727404545
338,hualien city,23.9769,121.6044,32.4,75,10,3.45,TW,1727404546
339,vernon,50.2581,-119.2691,15.42,64,100,1.03,CA,1727404547
340,kasongo-lunda,-6.4667,16.8167,21.75,89,31,1.2,CD,1727404549
341,porto seguro,-16.4497,-39.0647,24.29,83,20,1.54,BR,1727404550
342,sitka,57.0531,-135.33,8.92,78,99,2.51,US,1727404370
343,okhotsk,59.3833,143.3,10.48,58,1,1.38,RU,1727404553
344,quezon,7.7303,125.0989,30.24,59,30,1.67,PH,1727404556
345,kashmar,35.2383,58.4656,17.68,47,57,1.51,IR,1727404557
346,saint-denis,48.9167,2.3333,13.43,85,100,8.23,FR,1727404558
347,korla,41.7597,86.1469,21.65,30,94,9.49,CN,1727404560
348,portland,45.5234,-122.6762,19.89,72,5,1.34,US,1727403929
349,lincheng,19.9078,109.6858,29.03,75,64,1.42,CN,1727404564
350,ain sefra,32.75,-0.5833,22.9,49,3,2.07,DZ,1727404566
351,kristiansund,63.1115,7.732,7.36,87,100,5.14,NO,1727404567
352,pasni,25.2631,63.471,26.53,84,72,4.95,PK,1727404568
353,tchaourou,8.8865,2.5975,22.03,99,54,1.92,BJ,1727404571
354,gaigeturi,33.4644,126.3183,26.03,65,75,3.09,KR,1727404573
355,aloja,57.7669,24.8825,14.93,87,100,5.36,LV,1727404574
356,labrador city,52.9463,-66.9114,8.95,87,75,1.03,CA,1727404575
357,liman,48.9884,37.8023,14.09,38,83,4.28,UA,1727404577
358,fuyuan,46.4333,127.0833,17.87,53,0,1.75,CN,1727404578
359,qarqaraly,49.4058,75.4742,0.72,54,15,2.24,KZ,1727404580
360,dayr hafir,36.1569,37.7078,23.16,41,0,3.41,SY,1727404581
361,tonj,7.2737,28.6822,21.21,96,85,1.43,SS,1727404582
362,kyren,51.6828,102.1408,3.4,90,100,0.63,RU,1727404584
363,oranjestad,12.524,-70.027,29.97,75,20,4.63,AW,1727404585
364,port alfred,-33.5906,26.891,13.43,95,36,1.48,ZA,1727404586
365,sokoni,-6.4333,39.55,24.8,73,45,5.41,TZ,1727404588
366,hilo,19.7297,-155.09,26.16,87,100,4.12,US,1727404589
367,gebeit,21.0667,36.3167,25.93,37,72,1.83,SD,1727404590
368,novodvinsk,64.4165,40.8122,13.86,87,100,4.97,RU,1727404592
369,merano,46.6682,11.1595,16.48,96,100,0.61,IT,1727404593
370,olyokminsk,60.3736,120.4264,7.12,68,95,3.03,RU,1727404595
371,muniz freire,-20.4642,-41.4131,17.93,83,0,3.32,BR,1727404596
372,new plymouth,-39.0667,174.0833,11.29,100,100,8.11,NZ,1727404468
373,lekki,6.3607,4.8333,23.57,96,84,1.27,NG,1727404599
374,severo-yeniseyskiy,60.3725,93.0408,0.71,70,13,0.64,RU,1727404600
375,karyes,37.3,22.5,15.04,66,0,0.55,GR,1727404601
376,el hamma,33.8915,9.7963,24.62,39,34,2.77,TN,1727404603
377,khanty-mansiysk,61.0042,69.0019,5.06,75,0,3.0,RU,1727404604
378,thunder bay,48.4001,-89.3168,14.99,100,0,2.57,CA,1727404606
379,santiago tlacotepec,19.2239,-99.6744,10.99,94,100,1.54,MX,1727404607
380,xinqing,48.2333,129.5,17.91,46,30,0.86,CN,1727404608
381,bath,51.3779,-2.3591,10.61,94,100,6.45,GB,1727404610
382,velikiy ustyug,60.7644,46.3106,11.96,43,100,4.48,RU,1727404611
383,mamadysh,55.7152,51.408,6.99,44,1,3.44,RU,1727404612
384,rikaze,29.25,88.8833,11.81,60,100,1.79,CN,1727404614
385,bonthe,7.5264,-12.505,24.64,92,94,3.84,SL,1727404615
386,iskateley,67.6803,53.1512,11.13,90,62,7.97,RU,1727404616
387,alotau,-10.3069,150.4462,29.65,68,100,2.44,PG,1727404618
388,yuzhno-kurilsk,44.0306,145.8556,16.68,98,100,4.04,RU,1727404621
389,siocon,7.7061,122.1353,30.51,66,24,2.26,PH,1727404622
390,tabas,33.5959,56.9244,23.96,32,0,4.01,IR,1727404623
391,queenstown,-31.8976,26.8753,8.03,83,38,0.96,ZA,1727404625
392,madagali,10.8902,13.6312,25.16,71,80,1.71,NG,1727404626
393,kingston,17.997,-76.7936,28.53,79,20,4.12,JM,1727404472
394,langsa,4.4683,97.9683,26.97,79,100,0.79,ID,1727404629
395,vila franca do campo,37.7167,-25.4333,21.23,80,97,2.22,PT,1727404630
396,ahmadpur sial,30.6754,71.7483,32.54,51,0,5.49,PK,1727404632
397,ugoofaaru,5.6667,73.0,27.68,79,100,5.88,MV,1727404633
398,fuglafjordur,62.244,-6.814,5.23,74,100,10.79,FO,1727404634
399,dowa,-13.654,33.9375,16.88,55,0,0.63,MW,1727404636
400,jabor,5.921,169.6434,29.27,69,34,3.08,MH,1727404637
401,purpe,64.4803,76.6897,0.31,75,100,4.49,RU,1727404638
402,esquel,-42.9,-71.3167,1.34,79,42,2.68,AR,1727404640
403,sur,22.5667,59.5289,29.1,59,100,2.53,OM,1727404641
404,punta arenas,-53.15,-70.9167,5.06,93,100,10.29,CL,1727404643
405,baranchinskiy,58.1617,59.6991,8.39,63,23,4.07,RU,1727404644
406,mata-utu,-13.2816,-176.1745,26.66,81,59,10.24,WF,1727404647
407,aberdeen,57.1437,-2.0981,8.27,89,40,5.66,GB,1727404648
408,codrington,-38.2667,141.9667,15.54,52,0,2.0,AU,1727404649
409,klaipeda,55.7172,21.1175,18.03,87,97,10.48,LT,1727404651
410,kachug,53.9606,105.8817,6.56,50,99,1.67,RU,1727404652
411,east london,-33.0153,27.9116,15.15,75,20,1.71,ZA,1727404653
412,rantauprapat,2.1,99.8333,28.19,72,91,1.26,ID,1727404655
413,hammerfest,70.6634,23.6821,6.25,75,75,6.17,NO,1727404656
414,wynyard,-41.0,145.7167,16.77,60,9,0.89,AU,1727404658
415,salym,60.0625,71.4789,3.87,80,100,3.06,RU,1727404659
416,tamanrasset,22.785,5.5228,26.95,24,40,2.06,DZ,1727404660
417,akom ii,2.7833,10.5667,21.17,100,100,0.53,CM,1727404662
418,mitu,1.1983,-70.1733,22.34,99,99,0.32,CO,1727404665
419,naryn,41.4287,75.9911,7.42,81,100,3.0,KG,1727404666
420,novoazovs'k,47.1139,38.086,16.67,58,96,7.53,UA,1727404667
421,luwuk,-0.9516,122.7875,29.37,55,10,2.28,ID,1727404669
422,tripoli,32.8752,13.1875,26.78,52,0,2.86,LY,1727404670
423,lillesand,58.2488,8.3778,10.02,57,20,3.09,NO,1727404672
424,dauphin,51.1494,-100.0502,20.08,56,0,10.29,CA,1727404673
425,kaya,13.0917,-1.0844,26.58,74,10,2.65,BF,1727404674
426,altai,46.3722,96.2583,6.55,56,99,4.18,MN,1727404676
427,lokhvytsya,50.3678,33.2602,16.71,71,100,5.64,UA,1727404678
428,marechal candido rondon,-24.5561,-54.0567,18.61,67,38,4.55,BR,1727404680
429,imbituba,-28.24,-48.6703,17.48,89,94,6.68,BR,1727404681
430,gobabis,-22.45,18.9667,21.38,25,69,4.5,NA,1727404682
431,san agustin de valle fertil,-30.6335,-67.4682,11.38,41,0,1.78,AR,1727404684
432,hunt valley,39.4998,-76.6411,22.59,92,100,1.74,US,1727404685
433,pointe-noire,-4.7761,11.8635,23.99,88,93,2.1,CG,1727404687
434,bima,-8.4667,118.7167,35.43,44,27,2.76,ID,1727404688
435,sept-iles,50.2001,-66.3821,11.29,94,100,6.69,CA,1727404689
436,nanding,36.7483,118.0558,27.61,49,13,0.45,CN,1727404691
437,holdrege,40.4403,-99.3698,18.47,59,0,3.6,US,1727404692
438,kiama,-34.6833,150.8667,16.88,56,84,5.0,AU,1727404693
439,manicore,-5.8092,-61.3003,25.53,75,36,0.62,BR,1727404698
440,argo,37.6333,22.7333,21.85,59,0,1.55,GR,1727404699
441,miri,4.4148,114.0089,29.08,74,40,2.57,MY,1727404700
442,placido de castro,-10.3353,-67.1856,27.99,49,72,0.83,BR,1727404703
443,boda,4.3189,17.4695,21.04,96,100,1.07,CF,1727404704
444,al qaryatayn,34.2296,37.2407,19.74,41,0,0.89,SY,1727404706
445,knokke-heist,51.3333,3.3333,13.34,75,0,11.15,BE,1727404707
446,sinan,34.8262,126.1086,22.03,71,9,7.58,KR,1727404708
447,avare,-23.0986,-48.9258,27.68,23,100,3.26,BR,1727404710
448,salalah,17.0151,54.0924,27.05,89,75,2.06,OM,1727404711
449,tual,-5.6667,132.75,27.81,79,92,7.0,ID,1727404713
450,kalmunai,7.4167,81.8167,29.61,65,51,2.35,LK,1727404714
451,berezovyy,51.6667,135.7,16.66,57,77,0.94,RU,1727404715
452,bridgewater,44.3835,-64.5155,14.26,96,100,2.83,CA,1727404717
453,mkushi,-13.6202,29.3939,17.09,33,1,1.88,ZM,1727404718
454,faliraki,36.3398,28.1994,23.98,73,0,3.6,GR,1727404719
455,erenhot,43.6475,111.9767,20.06,60,42,5.67,CN,1727404721
456,grand island,40.925,-98.342,18.97,59,0,3.09,US,1727404725
457,new norfolk,-42.7826,147.0587,17.18,36,33,1.85,AU,1727404726
458,kiunga,-6.1219,141.2906,27.58,80,100,0.53,PG,1727404728
459,grand-bassam,5.2118,-3.7388,25.98,93,100,2.28,CI,1727404729
460,borovsk,55.2064,36.4861,19.07,20,100,5.82,RU,1727404730
461,ikungi,-5.1333,34.7667,15.64,75,3,4.09,TZ,1727404732
462,milici,44.1711,19.0903,14.8,79,0,2.61,BA,1727404733
463,pacific grove,36.6177,-121.9166,15.82,93,40,2.06,US,1727404734
464,barra de santo antonio,-9.4047,-35.5072,23.99,80,14,4.57,BR,1727404736
465,ola,59.5833,151.2833,8.83,69,2,2.84,RU,1727404737
466,fort bragg,35.139,-79.006,24.91,96,100,3.09,US,1727404739
467,vitina,43.2375,17.4839,15.76,78,0,1.09,BA,1727404740
468,siwa oasis,29.2041,25.5195,24.28,57,0,2.54,EG,1727404741
469,urengoy,65.9667,78.3667,0.19,81,97,3.88,RU,1727404743
470,nuuk,64.1835,-51.7216,7.34,65,27,3.6,GL,1727404744
471,hobyo,5.3505,48.5268,24.51,82,83,9.58,SO,1727404746
472,bogo,11.0517,124.0055,30.55,66,95,3.14,PH,1727404747
473,fada,7.25,4.0667,21.83,99,97,0.96,NG,1727404748
474,galliano,29.4422,-90.2992,23.0,64,0,3.6,US,1727404750
475,cole harbour,44.6724,-63.4751,15.71,82,100,6.17,CA,1727404751
476,wangaratta,-36.3667,146.3333,17.95,52,0,1.6,AU,1727404752
477,san fernando,15.0286,120.6898,30.85,86,100,0.71,PH,1727404754
478,talovskiy,51.1144,40.73,12.7,31,86,5.17,RU,1727404755
479,rabigh,22.7986,39.0349,29.11,80,100,2.17,SA,1727404757
480,ilhabela,-23.7781,-45.3581,24.96,56,3,1.67,BR,1727404758
481,yarkovo,57.4028,67.0786,7.16,90,91,2.11,RU,1727404759
482,antalaha,-14.9003,50.2788,19.83,80,4,2.97,MG,1727404761
483,kukawa,12.9234,13.5606,28.44,52,29,1.99,NG,1727404762
484,quellon,-43.1167,-73.6167,4.95,84,100,2.14,CL,1727404763
485,tateyama,34.9833,139.8667,24.96,94,75,3.6,JP,1727404765
486,djambala,-2.5447,14.7533,20.79,90,100,2.4,CG,1727404766
487,isangel,-19.55,169.2667,28.06,57,40,5.66,VU,1727404767
488,piti village,13.4626,144.6933,31.49,73,40,3.09,GU,1727404769
489,sapporo,43.0642,141.3469,21.29,89,75,4.12,JP,1727404770
490,caleta de carquin,-11.0925,-77.6267,16.71,82,81,3.74,PE,1727404772
491,palmer,42.1584,-72.3287,18.07,80,100,0.0,US,1727404773
492,magadan,59.5667,150.8,8.94,67,4,2.63,RU,1727404774
493,chimore,-16.9833,-65.1333,20.64,96,70,0.19,BO,1727404776
494,peace river,56.2501,-117.286,8.17,49,75,3.6,CA,1727404777
495,laojunmiao,39.8333,97.7333,17.38,35,54,2.38,CN,1727404778
496,le mars,42.7942,-96.1656,15.91,72,0,0.0,US,1727404780
497,tongren,27.7172,109.1853,31.07,38,23,0.99,CN,1727404783
498,bulgan,48.8125,103.5347,3.76,78,100,2.81,MN,1727404784
499,chyhyryn,49.0838,32.6555,16.29,78,100,4.95,UA,1727404785
500,richards bay,-28.783,32.0377,18.12,75,50,5.45,ZA,1727404787
501,aioun,16.6614,-9.6149,29.88,51,100,2.2,MR,1727404788
502,andergrove,-21.0833,149.1833,24.34,71,99,4.84,AU,1727404789
503,nar'yan-mar,67.6713,53.087,11.18,89,72,7.99,RU,1727404791
504,lubango,-14.9172,13.4925,15.92,72,94,1.54,AO,1727404792
505,barmer,25.75,71.3833,30.68,55,100,2.13,IN,1727404794
506,nisia floresta,-6.0911,-35.2086,25.21,84,25,3.64,BR,1727404795
507,puerto madryn,-42.7692,-65.0385,17.87,14,100,10.9,AR,1727404796
508,pingxiang,27.6167,113.85,30.33,62,45,0.78,CN,1727404798
509,kranenburg,51.7833,6.0167,14.47,78,89,9.68,DE,1727404799
510,balabac,7.9868,117.0645,29.97,65,72,0.86,PH,1727404800
511,hailey,43.5196,-114.3153,16.92,41,0,0.89,US,1727404802
512,alvaraes,-3.2208,-64.8042,23.38,90,31,1.04,BR,1727404803
513,falmouth,50.1544,-5.0711,12.32,94,100,3.6,GB,1727404805
514,lamarque,-39.423,-65.7021,16.29,19,100,9.57,AR,1727404806
515,north battleford,52.7834,-108.2847,10.05,46,0,4.63,CA,1727404807
516,labytnangi,66.6572,66.4183,4.09,92,90,2.98,RU,1727404809
517,tchintabaraden,15.8969,5.7985,32.95,28,57,4.64,NE,1727404810
518,fenoarivo be,-18.4333,46.5667,15.92,71,5,1.62,MG,1727404813
519,ta`u,-14.2336,-169.5144,26.49,79,100,8.75,AS,1727404814
520,paveh,35.0434,46.3565,14.04,71,0,4.13,IR,1727404816
521,macedo de cavaleiros,41.5382,-6.9611,11.02,79,7,3.77,PT,1727404817
522,huarmey,-10.0681,-78.1522,17.15,83,81,3.52,PE,1727404818
523,princeville,45.7668,-61.2985,12.65,93,100,2.06,CA,1727404820
524,solleftea,63.1667,17.2667,0.92,89,100,1.94,SE,1727404823
525,safotu,-13.4513,-172.4018,27.09,83,88,8.32,WS,1727404824
526,forster,-32.1667,152.5167,17.43,67,100,8.34,AU,1727404825
527,tazacorte,28.629,-17.9293,22.54,90,0,4.12,ES,1727404827
528,sidareja,-7.4846,108.7923,32.42,54,53,2.28,ID,1727404828
529,uliastay,47.7417,96.8444,6.77,69,100,1.65,MN,1727404829
530,grand falls-windsor,48.9332,-55.6649,6.95,90,9,1.39,CA,1727404831
531,inirida,3.8653,-67.9239,23.42,92,83,0.57,CO,1727404832
532,tofol,5.3248,163.0078,31.88,66,75,2.57,FM,1727404834
533,palembang,-2.9167,104.7458,30.42,67,99,2.56,ID,1727404835
534,torghay,49.6339,63.4981,7.69,39,8,1.4,KZ,1727404836
535,robore,-18.3333,-59.75,19.5,75,58,4.48,BO,1727404838
536,kurayoshi,35.4333,133.8167,26.63,74,77,2.95,JP,1727404839
537,whakatane,-37.9585,176.9854,16.4,80,100,0.89,NZ,1727404840
538,katsuren-haebaru,26.3369,127.8719,32.21,68,0,6.17,JP,1727404842
539,kimbe,-5.5502,150.1429,30.04,70,77,2.85,PG,1727404843
540,cambria,35.5641,-121.0808,15.03,87,0,1.4,US,1727404846
541,greenville,35.6127,-77.3663,24.97,98,100,1.54,US,1727404847
542,axim,4.8699,-2.2405,24.52,91,87,2.89,GH,1727404849
543,nueve de julio,-35.4444,-60.8831,9.42,45,0,3.48,AR,1727404850
544,ghat,24.9647,10.1728,28.49,38,63,2.52,LY,1727404851
545,timmins,48.4669,-81.3331,8.9,93,20,0.0,CA,1727404853
546,eregli,37.5133,34.0467,15.48,45,1,1.06,TR,1727404854
547,pitimbu,-7.4706,-34.8086,24.21,83,86,4.69,BR,1727404856
548,taroa,8.7058,171.2275,28.78,73,23,3.42,MH,1727404857
549,bodo,67.28,14.405,4.32,92,75,2.06,NO,1727404858
