City_ID,City,Lat,Lng,Max Temp,Humidity,Cloudiness,Wind Speed,Country,Date
0,ketchikan,55.3422,-131.6461,12.26,76,40,5.14,US,1727482916
1,guerrero negro,27.9769,-114.0611,20.81,77,15,10.04,MX,1727482917
2,kuchinarai,16.541,104.05,25.7,90,34,0.55,TH,1727482918
3,isafjordur,66.0755,-23.124,-0.48,81,96,3.92,IS,1727482921
4,totness,5.8833,-56.3167,27.62,81,100,4.92,SR,1727482923
5,adamstown,-25.066,-130.1015,21.19,82,79,4.66,PN,1727482924
6,margaret river,-33.95,115.0667,12.78,54,100,5.76,AU,1727482925
7,tazacorte,28.629,-17.9293,22.54,95,20,4.12,ES,1727482927
8,bilibino,68.0546,166.4372,-2.57,61,13,1.64,RU,1727482928
9,bubaque,11.2833,-15.8333,26.98,81,88,3.06,GW,1727482929
10,waitangi,-43.9535,-176.5597,9.34,80,81,3.13,NZ,1727482931
11,qaqortoq,60.7167,-46.0333,3.66,84,64,1.62,GL,1727482932
12,kalmunai,7.4167,81.8167,26.95,81,100,1.51,LK,1727482933
13,callao,-12.0667,-77.15,19.29,82,75,5.66,PE,1727482935
14,strezhevoy,60.7333,77.5889,3.73,92,96,4.07,RU,1727482936
15,iqaluit,63.7506,-68.5145,5.85,86,75,1.54,CA,1727482937
16,howrah,22.5892,88.3103,28.0,94,40,2.06,IN,1727482939
17,saint-denis,48.9167,2.3333,11.43,88,0,4.12,FR,1727482941
18,medina,24.4686,39.6142,31.24,11,0,3.09,SA,1727482943
19,kununurra,-15.7667,128.7333,30.99,62,15,1.54,AU,1727482944
20,keflavik,64.0049,-22.5624,6.24,75,0,1.54,IS,1727482946
21,port-aux-francais,-49.35,70.2167,1.81,67,46,16.72,TF,1727482947
22,cockburn town,21.4612,-71.1419,29.55,77,68,7.99,TC,1727482948
23,limassol,34.675,33.0333,22.04,60,0,1.54,CY,1727482950
24,makokou,0.5738,12.8642,20.68,99,97,0.95,GA,1727482951
25,edinburgh of the seven seas,-37.0676,-12.3116,11.17,61,93,5.68,SH,1727482952
26,klaksvik,62.2266,-6.589,5.47,76,100,11.06,FO,1727482954
27,hermanus,-34.4187,19.2345,13.78,87,44,4.61,ZA,1727482955
28,xilin hot,43.9667,116.0333,14.58,78,81,4.72,CN,1727482956
29,bredasdorp,-34.5322,20.0403,11.79,92,78,1.79,ZA,1727482958
30,vila franca do campo,37.7167,-25.4333,23.23,93,66,3.98,PT,1727482959
31,hawaiian paradise park,19.5933,-154.9731,28.26,76,100,1.54,US,1727482960
32,alotau,-10.3069,150.4462,28.75,75,93,2.33,PG,1727482962
33,ribeira grande,38.5167,-28.7,24.32,89,80,8.49,PT,1727482963
34,grytviken,-54.2811,-36.5092,1.37,83,50,7.07,GS,1727482964
35,shingu,33.7333,135.9833,25.74,77,100,1.84,JP,1727482966
36,luancheng,37.8792,114.6517,21.47,73,100,0.32,CN,1727482967
37,okhotsk,59.3833,143.3,9.25,81,100,1.79,RU,1727482968
38,nuriootpa,-34.4833,139.0,18.81,33,52,10.34,AU,1727482970
39,auriflama,-20.6856,-50.5547,27.28,35,0,4.66,BR,1727482971
40,conceicao do araguaia,-8.2578,-49.2647,28.99,41,41,1.64,BR,1727482973
41,nykarleby,63.5228,22.5307,7.75,84,100,5.81,FI,1727482974
42,kavaratti,10.5669,72.642,28.19,77,78,5.8,IN,1727482975
43,longyearbyen,78.2186,15.6401,-1.09,64,40,5.14,SJ,1727482977
44,kapuskasing,49.4169,-82.4331,19.05,82,0,2.06,CA,1727482978
45,montepuez,-13.1256,38.9997,18.89,87,1,1.72,MZ,1727482979
46,yeniseysk,58.4497,92.1703,-1.6,90,67,1.21,RU,1727482981
47,iskateley,67.6803,53.1512,10.96,92,85,7.49,RU,1727482982
48,holualoa,19.6228,-155.9522,27.68,78,40,4.12,US,1727482983
49,san lawrenz,36.0553,14.204,24.92,93,10,3.29,MT,1727482985
50,ushuaia,-54.8,-68.3,-1.19,43,0,1.54,AR,1727482986
51,whitehorse,60.7161,-135.0538,8.39,63,100,1.79,CA,1727482689
52,weno,7.4515,151.8468,31.97,84,75,0.0,FM,1727482989
53,beipiao,41.7919,120.7792,16.81,74,38,2.17,CN,1727482990
54,constitucion,-35.3333,-72.4167,10.32,59,88,4.45,CL,1727482993
55,monrovia,6.3005,-10.7969,24.92,89,100,2.66,LR,1727482994
56,viqueque,-8.8673,126.3658,27.78,69,48,2.6,TL,1727482996
57,namibe,-15.1961,12.1522,20.51,87,86,1.56,AO,1727482997
58,st. john's,47.5649,-52.7093,11.55,87,100,3.09,CA,1727482822
59,sinop,41.7711,34.8709,16.91,74,0,3.36,TR,1727483000
60,mollendo,-17.0231,-72.0147,15.11,83,28,2.95,PE,1727483001
61,askino,56.0901,56.5783,7.25,62,15,3.68,RU,1727483002
62,jamestown,42.097,-79.2353,19.45,81,20,6.17,US,1727483004
63,ancud,-41.8697,-73.8203,9.38,94,76,4.87,CL,1727483005
64,mil'kovo,55.6078,37.7956,16.86,62,100,7.87,RU,1727483007
65,acarau,-2.8856,-40.12,25.39,81,69,8.16,BR,1727483008
66,tazovsky,67.4667,78.7,5.49,95,100,8.85,RU,1727483009
67,badger,64.8,-147.5333,6.14,86,100,1.54,US,1727483011
68,puerto natales,-51.7236,-72.4875,1.73,82,94,4.71,CL,1727483012
69,timimoun,29.2639,0.231,32.69,22,58,2.23,DZ,1727483013
70,tura,25.5198,90.2201,22.44,98,100,1.17,IN,1727483015
71,keningau,5.3378,116.1602,24.12,93,41,0.87,MY,1727483016
72,bethel,41.3712,-73.414,19.2,86,100,0.45,US,1727483017
73,padre bernardo,-15.35,-48.5,29.86,21,23,1.21,BR,1727483019
74,invercargill,-46.4,168.35,11.12,81,97,9.39,NZ,1727483022
75,alice springs,-23.7,133.8833,24.75,19,75,4.12,AU,1727482887
76,thompson,55.7435,-97.8558,14.09,67,75,1.54,CA,1727483026
77,punta arenas,-53.15,-70.9167,0.06,80,40,3.09,CL,1727483027
78,hadibu,12.65,54.0333,25.26,83,35,6.21,YE,1727483030
79,tongliao,43.6125,122.2653,16.5,61,16,4.27,CN,1727483033
80,utrik,11.2278,169.8474,28.57,79,70,6.81,MH,1727483034
81,bel ombre,-4.6167,55.4167,26.91,78,40,5.66,SC,1727483036
82,bryne,58.7354,5.6477,5.87,85,40,5.66,NO,1727483037
83,puerto ayora,-0.7393,-90.3518,20.86,95,99,2.24,EC,1727483039
84,chengde,40.9725,117.9361,15.66,82,93,1.0,CN,1727483040
85,mahdishahr,35.7108,53.3556,15.46,68,99,1.27,IR,1727483041
86,ghat,24.9647,10.1728,32.52,26,81,2.08,LY,1727483043
87,uribia,11.7139,-72.266,30.38,62,66,6.74,CO,1727483044
88,vredendal,-31.6683,18.5012,12.3,92,100,1.61,ZA,1727483047
89,fale old settlement,-9.3852,-171.2468,27.93,75,33,4.64,TK,1727483049
90,qamdo,31.1667,97.2333,7.07,80,90,1.68,CN,1727483051
91,pangody,65.85,74.4859,5.55,98,96,4.81,RU,1727483052
92,san patricio,28.017,-97.5169,27.97,35,0,2.13,US,1727483054
93,stanley,54.868,-1.6985,4.18,82,0,3.09,GB,1727483055
94,parang,7.3704,124.2697,27.05,83,63,1.48,PH,1727483056
95,barra de santo antonio,-9.4047,-35.5072,24.27,79,8,4.67,BR,1727483058
96,yellowknife,62.456,-114.3525,8.56,76,20,5.66,CA,1727482979
97,vila velha,-20.3297,-40.2925,24.97,84,0,6.26,BR,1727483060
98,uturoa,-16.7333,-151.4333,26.53,79,6,5.04,PF,1727483062
99,pisco,-13.7,-76.2167,17.03,82,67,3.6,PE,1727483063
100,salekhard,66.53,66.6019,8.31,87,35,3.93,RU,1727483065
101,wailua homesteads,22.0669,-159.378,28.44,75,20,5.66,US,1727483066
102,atafu village,-8.5421,-172.5159,27.86,76,76,4.62,TK,1727483067
103,olonkinbyen,70.9221,-8.7187,-1.28,77,100,11.13,SJ,1727483069
104,san rafael,-34.6177,-68.3301,20.83,17,5,3.12,AR,1727483070
105,sitangkai,4.6628,119.3928,28.28,74,64,0.89,PH,1727483071
106,kailua-kona,19.6406,-155.9956,29.75,72,40,4.12,US,1727483073
107,al manqaf,29.0961,48.1328,32.73,32,0,6.02,KW,1727483074
108,olinda,-8.0089,-34.8553,25.85,78,75,4.63,BR,1727483075
109,kattivakkam,13.2167,80.3167,27.76,92,63,3.01,IN,1727483077
110,novosmolinskiy,56.2841,43.0507,18.26,24,100,7.83,RU,1727483078
111,tiksi,71.6872,128.8694,-1.45,91,82,4.83,RU,1727483080
112,hami,42.8,93.45,11.39,41,100,8.16,CN,1727483081
113,vorkuta,67.5,64.0,9.31,85,99,5.29,RU,1727483082
114,ituango,7.1712,-75.764,19.58,98,93,1.0,CO,1727483084
115,udachny,66.4167,112.4,-0.86,71,51,3.02,RU,1727483085
116,souillac,-20.5167,57.5167,22.21,88,40,3.09,MU,1727483086
117,albany,42.6001,-73.9662,17.23,73,100,1.36,US,1727483088
118,port alfred,-33.5906,26.891,15.1,94,100,0.89,ZA,1727483089
119,bantilan,14.7519,121.6656,28.14,80,80,3.59,PH,1727483092
120,kingston,17.997,-76.7936,28.53,79,20,3.6,JM,1727483093
121,gandu,-13.7439,-39.4867,18.82,99,18,0.31,BR,1727483096
122,arraial do cabo,-22.9661,-42.0278,22.98,73,75,4.63,BR,1727483099
123,ola,59.5833,151.2833,7.9,69,0,1.7,RU,1727483100
124,avarua,-21.2078,-159.775,24.03,64,20,4.63,CK,1727483102
125,san buenaventura,27.0833,-101.5333,30.26,26,0,5.15,MX,1727483103
126,papatowai,-46.5619,169.4708,11.67,65,73,7.26,NZ,1727483104
127,najran,17.4924,44.1277,21.75,24,15,1.04,SA,1727483106
128,ust-nera,64.5667,143.2,5.22,74,99,4.56,RU,1727483107
129,ryotsu-minato,38.0833,138.4333,22.56,69,65,5.63,JP,1727483108
130,college,64.8569,-147.8028,5.61,82,100,1.54,US,1727483069
131,saipan,15.1355,145.701,31.39,74,20,4.12,MP,1727483111
132,geraldton,-28.7667,114.6,14.23,77,22,3.09,AU,1727482980
133,antsiranana,-12.2787,49.2917,21.55,76,7,5.68,MG,1727483115
134,queenstown,-31.8976,26.8753,16.14,44,100,3.18,ZA,1727483117
135,igarka,67.4667,86.5833,1.93,94,100,8.02,RU,1727483118
136,ed damer,17.5928,33.9592,33.65,30,3,3.8,SD,1727483119
137,castillos,-34.1667,-53.8333,11.05,93,23,1.83,UY,1727483121
138,masterton,-40.9597,175.6575,15.35,49,2,0.14,NZ,1727483122
139,ta`u,-14.2336,-169.5144,26.64,79,90,7.02,AS,1727483123
140,gaogou,34.0175,119.1886,21.82,71,70,3.59,CN,1727483125
141,ales,44.1333,4.0833,12.85,66,50,0.29,FR,1727483126
142,minas de marcona,-15.2119,-75.1103,13.11,73,36,4.88,PE,1727483127
143,port elizabeth,-33.918,25.5701,15.73,99,100,2.06,ZA,1727483129
144,lampasas,31.2168,-98.2336,29.05,44,0,3.99,US,1727483130
145,santa rosalia,27.3167,-112.2833,34.82,24,0,2.78,MX,1727483132
146,mejit,10.2753,170.8646,28.79,74,30,4.15,MH,1727483133
147,new norfolk,-42.7826,147.0587,15.51,33,100,1.73,AU,1727483134
148,krychaw,53.6945,31.7099,16.93,75,100,3.03,BY,1727483136
149,afaahiti,-17.75,-149.2833,25.19,80,23,5.68,PF,1727483137
150,laguna,38.421,-121.4238,36.13,19,0,1.54,US,1727483138
151,petropavlovsk-kamchatsky,53.0452,158.6483,7.33,71,20,1.0,RU,1727483014
152,thinadhoo,0.5333,72.9333,27.87,79,84,5.2,MV,1727483141
153,luderitz,-26.6481,15.1594,17.65,69,100,4.18,NA,1727483142
154,labrador city,52.9463,-66.9114,10.95,76,100,1.54,CA,1727483144
155,puerto baquerizo moreno,-0.9,-89.6,19.95,91,93,5.43,EC,1727483145
156,at taraf,25.3628,49.725,29.3,20,6,2.39,SA,1727483146
157,blackmans bay,-43.0167,147.3167,14.85,59,100,1.34,AU,1727483148
158,katsuura,35.1333,140.3,23.45,92,100,5.89,JP,1727483149
159,beykonak,36.3257,30.303,26.8,50,0,2.22,TR,1727483150
160,praia,14.9215,-23.5087,26.3,94,75,5.14,CV,1727483152
161,aykhal,66.0,111.5,-2.23,80,43,4.42,RU,1727483153
162,whangarei,-35.7317,174.3239,16.82,43,1,3.49,NZ,1727483155
163,porto novo,6.4965,2.6036,24.9,89,97,3.33,BJ,1727483156
164,smirnykh,49.75,142.8333,13.47,83,81,1.49,RU,1727483157
165,georgetown,5.4112,100.3354,26.96,92,20,1.54,MY,1727482974
166,bonthe,7.5264,-12.505,24.36,95,100,2.12,SL,1727483161
167,coahuayana de hidalgo,18.7,-103.6583,23.68,95,100,0.4,MX,1727483163
168,aasiaat,68.7098,-52.8699,2.17,98,100,1.84,GL,1727482834
169,petoskey,45.3733,-84.9553,19.01,69,0,3.09,US,1727483165
170,ohara,35.25,140.3833,23.64,89,100,6.67,JP,1727483168
171,nova sintra,14.8667,-24.7167,23.92,82,99,5.6,CV,1727482825
172,lihue,21.9789,-159.3672,28.77,70,20,5.66,US,1727483051
173,ulaangom,49.9811,92.0667,1.48,68,100,2.71,MN,1727483013
174,harrison,30.4091,-89.0436,26.04,51,0,2.57,US,1727483175
175,horsham,51.064,-0.3272,7.06,81,0,2.57,GB,1727483176
176,rongelap,11.1635,166.8941,28.68,77,36,6.18,MH,1727483177
177,lieksa,63.3167,30.0167,12.77,92,100,10.68,FI,1727483178
178,west island,-12.1568,96.8225,25.99,69,100,4.63,CC,1727482813
179,hasaki,35.7333,140.8333,25.16,86,100,10.13,JP,1727483181
180,mount pearl,47.5166,-52.7813,11.15,91,100,3.09,CA,1727482817
181,tippi,7.2,35.45,17.92,92,99,1.41,ET,1727483183
182,ouani,-12.1322,44.4258,24.77,73,65,1.05,KM,1727483185
183,broome,42.2506,-75.833,19.28,79,100,3.09,US,1727483186
184,ambon,-3.6954,128.1814,29.08,79,40,1.54,ID,1727483128
185,vinh,18.6667,105.6667,26.02,90,25,0.87,VN,1727482952
186,fortuna,40.5982,-124.1573,15.55,88,0,5.14,US,1727482746
187,qusmuryn,52.4503,64.6311,10.29,62,3,2.57,KZ,1727483191
188,kodiak,57.79,-152.4072,11.73,62,0,4.63,US,1727482720
189,flying fish cove,-10.4217,105.6791,26.82,83,75,4.63,CX,1727482935
190,antalaha,-14.9003,50.2788,18.72,83,2,2.58,MG,1727483194
191,tagta,41.6504,59.9164,7.97,49,0,5.14,TM,1727483196
192,paragominas,-2.9667,-47.4833,24.85,80,66,2.43,BR,1727483197
193,karagandy,49.8019,73.1021,5.97,53,97,4.98,KZ,1727483198
194,tukrah,32.5341,20.5791,23.77,71,0,2.39,LY,1727483199
195,fort bragg,35.139,-79.006,26.91,76,40,2.57,US,1727482743
196,sanctuary point,-35.1114,150.629,17.08,71,97,0.76,AU,1727483202
197,calliope,-24.0,151.2,27.61,41,0,2.57,AU,1727483203
198,ganye,8.4333,12.0667,22.01,92,100,1.46,NG,1727483204
199,paciran,-6.8767,112.3761,27.97,76,66,3.55,ID,1727483206
200,saldanha,-33.0117,17.9442,13.03,89,98,2.45,ZA,1727483207
201,saudarkrokur,65.7461,-19.6394,1.7,78,94,1.09,IS,1727483208
202,qui nhon,13.7667,109.2333,26.67,82,58,1.57,VN,1727483209
203,lompoc,34.6391,-120.4579,20.23,79,12,5.14,US,1727483210
204,lebu,-37.6167,-73.65,10.54,86,100,3.82,CL,1727482801
205,bardai,11.65,7.2333,21.9,90,89,3.74,NG,1727483213
206,les sables-d'olonne,46.6667,-1.8333,10.44,80,61,5.85,FR,1727483214
207,labuan,5.2767,115.2417,28.2,89,20,0.0,MY,1727483215
208,hegang,47.4,130.3667,13.59,67,11,1.3,CN,1727483217
209,sitka,57.0531,-135.33,11.94,66,75,1.54,US,1727483218
210,taltal,-25.4,-70.4833,14.97,78,25,2.23,CL,1727483219
211,lobujya,27.95,86.8167,0.8,98,100,1.67,NP,1727483220
212,vorgashor,67.5833,63.95,9.17,86,98,5.21,RU,1727482772
213,tual,-5.6667,132.75,27.38,80,57,7.72,ID,1727483221
214,port moresby,-9.4431,147.1797,30.68,62,40,2.06,PG,1727483224
215,talavera,15.6167,120.9333,26.41,90,100,2.98,PH,1727483228
216,jayapura,-2.5333,140.7,28.66,63,31,1.56,ID,1727483229
217,talnakh,69.4865,88.3972,0.52,98,100,6.65,RU,1727483230
218,lerwick,60.1545,-1.1494,6.0,64,100,10.72,GB,1727482854
219,mandla,22.6,80.3833,23.35,97,100,3.24,IN,1727483233
220,at taj,24.2049,23.2857,25.4,37,0,4.31,LY,1727483234
221,anadyr,64.75,177.4833,4.28,60,75,3.0,RU,1727482762
222,alofi,-19.0595,-169.9187,26.94,65,75,9.26,NU,1727483236
223,brookings,44.3114,-96.7984,24.0,54,0,3.09,US,1727483238
224,simanggang,1.2472,111.4528,24.99,94,20,0.0,MY,1727483239
225,tsiombe,-25.3,45.4833,21.17,81,84,3.11,MG,1727483176
226,yoloten,37.2989,62.3597,13.6,22,32,3.76,TM,1727483241
227,sandnessjoen,66.0217,12.6316,0.29,61,67,7.4,NO,1727483242
228,nemuro,43.3236,145.575,16.17,93,100,6.02,JP,1727482523
229,tokamachi,37.1333,138.7667,22.78,92,100,0.26,JP,1727483245
230,dhidhdhoo,6.8833,73.1,27.9,79,48,6.3,MV,1727483246
231,manikchari,22.8408,91.844,23.73,98,98,0.71,BD,1727483247
232,klyuchi,52.2667,79.1667,1.84,59,5,0.14,RU,1727482728
233,remire-montjoly,4.9167,-52.2667,28.02,83,0,3.6,GF,1727483250
234,ormond-by-the-sea,29.3491,-81.0665,28.38,70,75,1.54,US,1727483251
235,namie,37.4833,141.0,25.4,77,100,5.23,JP,1727483254
236,belel,7.05,14.4333,16.45,93,100,0.64,CM,1727483255
237,pagar alam,-4.0167,103.2667,21.81,93,75,0.44,ID,1727483256
238,daniel flores,9.3355,-83.6694,22.57,95,100,0.38,CR,1727483257
239,rabo de peixe,37.8,-25.5833,22.73,88,40,4.63,PT,1727483259
240,kirsanov,52.6549,42.7224,14.0,31,99,6.51,RU,1727483260
241,rondonopolis,-16.4708,-54.6356,29.42,44,30,2.15,BR,1727483261
242,timbuktu,16.7735,-3.0074,31.38,39,50,4.76,ML,1727483249
243,moussoro,13.6408,16.4901,31.45,31,75,2.69,TD,1727483264
244,kilindoni,-7.9139,39.6668,24.52,76,28,5.35,TZ,1727483265
245,santana,-0.0583,-51.1817,29.1,79,20,5.14,BR,1727483121
246,columbia,34.0007,-81.0348,23.71,74,0,2.06,US,1727483267
247,carnarvon,-24.8667,113.6333,17.01,51,7,8.18,AU,1727483269
248,gadzhiyevo,69.2551,33.3362,6.57,95,100,11.13,RU,1727483270
249,altamont,42.2068,-121.7372,29.32,24,0,2.57,US,1727483271
250,colonia,50.9333,6.95,11.27,86,75,4.12,DE,1727482848
251,ha giang,22.8333,104.9833,25.82,97,99,0.73,VN,1727483040
252,itaituba,-4.2761,-55.9836,26.64,71,58,0.99,BR,1727483275
253,port-vila,-17.7338,168.3219,28.78,61,75,5.14,VU,1727483204
254,namtsy,62.7161,129.6658,2.46,79,96,3.36,RU,1727482859
255,dali,25.7,100.1833,16.6,93,69,1.6,CN,1727483278
256,timmins,48.4669,-81.3331,13.9,88,0,1.03,CA,1727483280
257,ilulissat,69.2167,-51.1,3.01,93,100,0.0,GL,1727482802
258,hommersak,58.9317,5.8511,6.67,86,40,5.66,NO,1727483282
259,tambura,5.6,27.4667,21.23,89,85,0.5,SS,1727483284
260,smithers,54.7804,-127.1743,12.18,54,40,3.6,CA,1727483285
261,murghob,38.1702,73.9667,1.5,56,0,1.21,TJ,1727483286
262,chinde,26.8418,88.0763,15.72,98,100,1.7,NP,1727483287
263,sur,22.5667,59.5289,28.16,62,59,3.03,OM,1727483289
264,enewetak,11.3474,162.3373,29.07,76,9,6.16,MH,1727483290
265,konarka,19.9,86.1167,26.22,84,98,4.41,IN,1727483291
266,kidal,18.4411,1.4078,34.43,21,28,2.16,ML,1727483293
267,oroso,42.9833,-8.4333,10.91,93,20,0.51,ES,1727483294
268,fonte boa,-2.4959,-66.2662,25.05,79,79,1.11,BR,1727483295
269,ain sefra,32.75,-0.5833,24.4,42,54,2.57,DZ,1727483296
270,dunedin,-45.8742,170.5036,14.33,51,84,2.68,NZ,1727483270
271,torghay,49.6339,63.4981,10.44,42,0,3.19,KZ,1727483168
272,bandarbeyla,9.4942,50.8122,24.5,81,36,11.28,SO,1727483300
273,almansa,38.8692,-1.0971,14.88,79,11,2.74,ES,1727483301
274,susuman,62.7833,148.1667,4.93,56,100,2.13,RU,1727483303
275,woolgoolga,-30.1106,153.2007,14.97,87,100,10.99,AU,1727482860
276,benguela,-12.5763,13.4055,23.05,81,89,0.96,AO,1727483288
277,wanning,18.8003,110.3967,27.02,80,71,2.29,CN,1727483274
278,frouard,48.76,6.1316,11.56,92,75,2.06,FR,1727483307
279,wotho,10.1657,166.0102,28.62,78,33,5.75,MH,1727483309
280,saint-francois,46.4154,3.9054,11.69,90,100,3.6,FR,1727483310
281,san luis de la loma,17.2706,-100.8939,23.89,96,100,2.9,MX,1727483311
282,vanimo,-2.6741,141.3028,29.53,66,48,2.0,PG,1727483312
283,mount isa,-20.7333,139.5,26.87,13,0,4.63,AU,1727483314
284,puerto aysen,-45.4,-72.7,4.67,100,100,2.05,CL,1727483315
285,east london,-33.0153,27.9116,17.58,80,100,6.73,ZA,1727482758
286,buala,-8.145,159.5921,28.73,71,97,3.29,SB,1727483317
287,jieyang,23.5289,116.3642,28.96,83,43,0.21,CN,1727483320
288,ozubulu,5.9567,6.849,23.02,96,100,1.26,NG,1727483323
289,usogorsk,63.4106,48.6872,11.94,86,100,7.73,RU,1727483324
290,mata-utu,-13.2816,-176.1745,26.95,81,2,7.84,WF,1727483326
291,regente feijo,-22.2214,-51.3028,21.6,60,0,1.54,BR,1727483327
292,prineville,44.2999,-120.8345,28.06,32,0,3.09,US,1727483328
293,viedma,-40.8135,-62.9967,18.43,13,100,5.53,AR,1727483169
294,charters towers,-20.1,146.2667,26.37,21,0,3.2,AU,1727483331
295,hirara,24.8,125.2833,27.15,100,75,5.66,JP,1727483244
296,mogok,22.9167,96.5,18.96,99,99,0.84,MM,1727483333
297,altpinar,39.2042,32.7478,18.21,40,0,1.62,TR,1727483334
298,bonao,18.9369,-70.4092,24.08,95,79,0.99,DO,1727483335
299,vadso,70.0744,29.7487,6.49,87,100,7.2,NO,1727482839
300,ladario,-19.0047,-57.6017,23.28,52,6,1.67,BR,1727483338
301,kavieng,-2.5744,150.7967,28.91,71,51,1.68,PG,1727483339
302,ban houakhoua,20.2453,100.4547,23.29,95,47,0.2,LA,1727483340
303,inarajan village,13.2736,144.7484,31.33,84,100,3.69,GU,1727483342
304,utete,-7.986,38.758,20.13,96,19,0.81,TZ,1727483343
305,auki,-8.7676,160.7034,28.85,68,99,0.44,SB,1727483344
306,constantia,44.1833,28.65,16.5,87,1,5.08,RO,1727483345
307,haiku-pauwela,20.9219,-156.3051,29.01,72,91,11.18,US,1727483347
308,yangshuo,24.7808,110.4897,26.01,80,57,0.58,CN,1727483348
309,betio village,1.358,172.9211,32.02,69,74,5.47,KI,1727483349
310,mana,5.6592,-53.7767,27.0,87,58,3.14,GF,1727483350
311,cacoal,-11.4386,-61.4472,30.53,41,51,0.99,BR,1727483352
312,al mindak,20.1588,41.2834,21.78,25,50,2.1,SA,1727483353
313,ekibastuz,51.6667,75.3667,6.59,78,72,1.29,KZ,1727483354
314,daru,-9.0763,143.2092,28.38,73,60,4.63,PG,1727483355
315,novoishimskiy,53.1981,66.7694,9.22,68,28,2.8,KZ,1727483357
316,popondetta,-8.7537,148.2534,32.78,51,100,1.75,PG,1727483358
317,port macquarie,-31.4333,152.9167,17.26,77,100,1.34,AU,1727483359
318,praia da vitoria,38.7333,-27.0667,24.14,78,20,8.35,PT,1727483349
319,kristiansund,63.1115,7.732,5.03,89,75,1.03,NO,1727483362
320,quellon,-43.1167,-73.6167,8.54,94,99,3.51,CL,1727483363
321,oranjemund,-28.55,16.4333,14.0,87,99,2.61,NA,1727483364
322,coyhaique,-45.5752,-72.0662,3.45,99,84,3.96,CL,1727483365
323,san pedro del parana,-26.8333,-56.2,15.82,77,0,1.92,PY,1727483368
324,hithadhoo,-0.6,73.0833,28.18,75,89,5.71,MV,1727482826
325,tolanaro,-25.0319,46.9987,23.04,78,20,1.03,MG,1727482858
326,wuyishan,28.0047,117.8114,24.63,88,7,1.08,CN,1727483372
327,taoudenni,22.6783,-3.9836,34.76,28,22,5.79,ML,1727483373
328,bereket,39.2446,55.5154,14.78,13,100,6.63,TM,1727483374
329,ntcheu,-14.8203,34.6359,20.99,40,1,0.48,MW,1727483375
330,nar'yan-mar,67.6713,53.087,10.9,93,88,7.5,RU,1727483153
331,rucava,56.1585,21.1619,15.95,80,80,4.23,LV,1727483378
332,mount gambier,-37.8333,140.7667,16.97,43,67,6.2,AU,1727483379
333,akcaabat,41.0212,39.5715,20.93,64,40,4.12,TR,1727483380
334,arteche,12.2645,125.4048,27.71,82,90,2.44,PH,1727483382
335,chiang mai,18.75,99.0,26.04,89,75,1.54,TH,1727483300
336,shenkursk,62.1091,42.896,14.46,89,100,7.2,RU,1727483384
337,iyidere,41.0119,40.3619,20.98,76,0,2.06,TR,1727483385
338,port mathurin,-19.6833,63.4167,22.25,79,8,8.61,MU,1727482812
339,chonchi,-42.6128,-73.8092,9.56,97,88,2.08,CL,1727483388
340,christchurch,-43.5333,172.6333,14.67,63,80,0.66,NZ,1727483051
341,taulaga,-11.0553,-171.0883,28.09,74,86,6.62,AS,1727483390
342,cidreira,-30.1811,-50.2056,15.91,88,6,2.24,BR,1727483391
343,fuengirola,36.54,-4.6247,23.25,40,0,10.29,ES,1727483393
344,suva,-18.1416,178.4415,26.71,61,40,5.66,FJ,1727483394
345,khash,28.2211,61.2158,19.26,36,0,2.44,IR,1727483395
346,novodvinsk,64.4165,40.8122,13.86,89,100,5.31,RU,1727483398
347,forest city,28.6668,-81.4433,28.41,74,73,0.45,US,1727483399
348,kuching,1.55,110.3333,27.79,86,20,1.03,MY,1727483400
349,magistral'nyy,56.1725,107.4458,3.55,55,99,1.04,RU,1727483402
350,mermoz boabab,14.7065,-17.4758,26.31,94,0,2.06,SN,1727483403
351,bodo,67.28,14.405,4.02,89,75,4.63,NO,1727483405
352,polyarnyy,69.1989,33.4478,6.81,94,100,11.0,RU,1727483211
353,shanga,11.2106,4.5788,22.32,88,100,2.44,NG,1727483407
354,ipatovo,45.7181,42.9036,12.88,68,0,5.75,RU,1727483409
355,eyl,7.9803,49.8164,24.77,81,100,9.45,SO,1727483410
356,pueblo nuevo,23.3833,-105.3833,17.5,71,74,1.55,MX,1727483411
357,san jose del guaviare,2.5729,-72.6459,22.25,88,100,0.9,CO,1727483412
358,argostolion,38.1811,20.489,22.64,47,0,0.17,GR,1727483413
359,padul,37.018,-3.6693,11.4,64,7,2.29,ES,1727483415
360,springs,-26.25,28.4,18.57,21,76,3.43,ZA,1727483416
361,oum hadjer,13.2954,19.6966,29.71,35,94,3.19,TD,1727483419
362,cranbrook,49.4999,-115.7688,20.91,30,20,6.17,CA,1727483422
363,mwene-ditu,-7.0,23.45,22.31,66,100,2.53,CD,1727483423
364,dinguiraye,11.3,-10.7167,21.59,96,100,0.57,GN,1727483424
365,monywa,22.1167,95.1333,27.57,84,92,1.84,MM,1727483425
366,nchelenge,-9.3451,28.734,22.65,40,89,2.3,ZM,1727483427
367,sinabang,2.4803,96.3801,25.99,84,100,2.41,ID,1727483428
368,galliano,29.4422,-90.2992,27.0,53,0,4.63,US,1727483429
369,chopda,21.25,75.3,24.91,94,100,1.04,IN,1727483430
370,happy valley-goose bay,53.3168,-60.3315,10.17,81,20,2.57,CA,1727483432
371,sao joaquim de bicas,-20.0492,-44.2739,27.19,33,71,1.03,BR,1727483433
372,carolina beach,34.0352,-77.8936,27.04,86,100,6.63,US,1727483434
373,khandyga,62.6667,135.6,4.65,75,100,2.53,RU,1727483437
374,bairnsdale,-37.8333,147.6167,16.7,69,0,0.89,AU,1727483438
375,moroto,2.5345,34.6666,22.1,59,99,1.38,UG,1727483439
376,atar,20.5169,-13.0499,32.5,34,100,4.8,MR,1727482867
377,el calafate,-50.3408,-72.2768,3.48,71,13,4.84,AR,1727483442
378,kill devil hills,36.0307,-75.676,26.66,92,75,7.72,US,1727483443
379,birjand,32.8663,59.2211,13.26,41,0,4.12,IR,1727483444
380,ust'-barguzin,53.45,108.9833,5.8,56,100,1.35,RU,1727483446
381,zymohiria,48.5857,38.9273,15.58,63,15,4.89,UA,1727483447
382,dergachi,51.2328,48.7659,9.32,39,0,3.21,RU,1727483448
383,domna,51.8971,113.1573,1.09,60,100,1.0,RU,1727483449
384,nova vicosa,-17.8919,-39.3719,24.42,78,0,6.73,BR,1727483450
385,adolfo lopez mateos,28.4667,-107.3,19.62,26,0,5.31,MX,1727483452
386,conde,-7.2597,-34.9075,24.7,88,20,4.12,BR,1727483453
387,dwarka,22.2394,68.9678,27.55,81,100,6.64,IN,1727483454
388,tucurui,-3.7661,-49.6725,28.66,55,70,1.0,BR,1727483312
389,kulhudhuffushi,6.6221,73.07,27.85,79,22,6.48,MV,1727483457
390,sparta,43.9441,-90.8129,21.85,81,0,0.0,US,1727483458
391,east ballina,-28.8667,153.5833,17.6,92,100,14.05,AU,1727483461
392,maintirano,-18.0667,44.0167,24.77,76,76,2.99,MG,1727483462
393,seka,17.9285,103.9552,27.08,83,15,0.19,TH,1727483464
394,loyew,51.9458,30.7953,17.88,69,23,3.53,BY,1727483465
395,santa terezinha,-29.9002,-50.0904,15.89,87,1,2.4,BR,1727483466
396,basco,20.4487,121.9702,28.99,80,99,10.29,PH,1727483468
397,argo,37.6333,22.7333,22.22,58,8,1.49,GR,1727483469
398,duong dong,10.2167,103.9667,28.02,81,46,1.99,VN,1727483470
399,zag,46.9441,99.165,5.2,56,100,1.71,MN,1727483472
400,desaguadero,-16.5656,-69.0417,11.35,60,80,2.85,PE,1727483473
401,darlowo,54.421,16.4107,13.23,75,0,7.83,PL,1727483474
402,falconara marittima,43.6233,13.4031,24.92,62,100,2.06,IT,1727483476
403,la passe,45.5549,-0.8967,12.52,79,19,4.44,FR,1727483477
404,el bayadh,33.6832,1.0193,18.84,69,12,3.09,DZ,1727483478
405,kayangel,8.0823,134.7173,28.77,75,5,3.36,PW,1727483480
406,sangueya,10.7,-14.3667,24.07,98,100,1.05,GN,1727483481
407,el alto,-4.2714,-81.2147,16.73,86,93,8.81,PE,1727483483
408,poyang,28.9924,116.6675,26.37,73,0,2.99,CN,1727483484
409,acapulco de juarez,16.8634,-99.8901,21.65,93,100,3.26,MX,1727483485
410,hassi messaoud,31.6804,6.0729,30.11,31,0,3.45,DZ,1727483429
411,portland,45.5234,-122.6762,23.09,58,40,3.09,US,1727482881
412,matipo,-20.2839,-42.3411,21.7,52,3,1.9,BR,1727483491
413,port lincoln,-34.7333,135.8667,18.64,38,100,11.32,AU,1727483492
414,micheweni,-4.9667,39.8333,23.55,79,9,4.4,TZ,1727483494
415,kolokani,13.5728,-8.0339,22.53,75,99,5.8,ML,1727483495
416,nadym,65.5333,72.5167,7.49,93,71,4.8,RU,1727483496
417,plettenberg bay,-34.0527,23.3716,13.92,91,100,0.91,ZA,1727483498
418,zhanaozen,43.3,52.8,10.47,45,94,6.32,KZ,1727483499
419,kruisfontein,-34.0033,24.7314,13.03,87,100,1.8,ZA,1727483500
420,quelimane,-17.8786,36.8883,22.97,94,0,2.06,MZ,1727483502
421,sasovo,54.3537,41.9199,16.9,27,100,9.06,RU,1727483503
422,vrangel',42.7297,133.0839,17.35,60,0,1.61,RU,1727483504
423,temryuk,45.2722,37.3811,16.83,66,0,2.74,RU,1727483506
424,porbandar,21.6422,69.6093,27.07,84,100,4.42,IN,1727483507
425,cafayate,-26.073,-65.9761,17.45,42,0,2.45,AR,1727483508
426,belyy yar,53.6039,91.3903,-0.06,93,40,1.0,RU,1727483510
427,pariaman,-0.619,100.12,26.03,79,73,1.01,ID,1727483511
428,fisterra,42.9049,-9.2629,14.11,79,22,3.28,ES,1727483512
429,saint croix,17.7397,-64.7388,27.25,88,0,2.57,VI,1727483514
430,egilsstadir,65.2653,-14.3948,-3.05,80,0,2.06,IS,1727483515
431,grassano,40.6346,16.2779,20.0,59,89,0.76,IT,1727483517
432,tindouf,27.6711,-8.1474,22.42,59,0,5.91,DZ,1727483518
433,aswan,24.0934,32.907,31.61,30,0,3.09,EG,1727483519
434,san felipe,10.3399,-68.7425,22.3,97,56,0.92,VE,1727483521
435,burewala,30.1667,72.65,29.2,55,0,3.79,PK,1727483522
436,selibaby,15.159,-12.1829,29.84,64,80,2.38,MR,1727483525
437,miramichi,47.0043,-65.4654,12.98,94,100,3.33,CA,1727483458
438,ubari,26.5921,12.7805,29.05,28,0,5.75,LY,1727483528
439,walvis bay,-22.9575,14.5053,13.53,94,1,3.6,NA,1727483529
440,prince george,53.9166,-122.753,14.69,36,20,9.77,CA,1727483364
441,cabo san lucas,22.8909,-109.9124,34.17,41,0,4.02,MX,1727483433
442,catemaco,18.4167,-95.1167,22.83,96,100,1.12,MX,1727483533
443,lospalos,-8.5186,127.0025,27.05,64,44,4.81,TL,1727483534
444,paranaiba,-19.6772,-51.1908,27.56,45,3,2.61,BR,1727483536
445,xining,36.6167,101.7667,16.63,65,26,0.19,CN,1727483537
446,hilo,19.7297,-155.09,27.85,83,100,1.54,US,1727483538
447,olyokminsk,60.3736,120.4264,3.24,75,100,3.93,RU,1727483541
448,nizhnesortymskiy,62.4397,71.7603,7.28,91,90,4.88,RU,1727483543
449,leua,48.2156,18.6071,15.21,75,100,5.75,SK,1727483544
450,zouerate,22.7187,-12.4521,30.07,30,9,6.54,MR,1727483545
451,saraipali,21.3333,83.0,24.11,92,100,1.44,IN,1727483547
452,pecos,31.4229,-103.4932,32.05,20,0,4.63,US,1727483548
453,yerofey pavlovich,53.9667,121.9667,5.88,70,99,1.95,RU,1727483551
454,gasa,31.5,34.4667,24.33,70,0,2.19,PS,1727483552
455,la'ie,21.6477,-157.9253,28.66,76,13,3.13,US,1727483554
456,idri,27.5,13.2667,27.64,26,0,5.64,LY,1727483555
457,dumka,24.2667,87.25,24.95,96,87,2.25,IN,1727483558
458,nasir,15.5894,32.5634,32.95,38,30,4.66,SD,1727483559
459,kolonia town,6.964,158.206,32.0,79,75,3.09,FM,1727483561
460,lazaro cardenas,17.9583,-102.2,25.01,88,100,1.28,MX,1727483562
461,ngereklmadel,7.4883,134.4856,30.05,74,75,2.06,PW,1727483563
462,al bardiyah,31.7561,25.0865,23.32,75,0,3.95,LY,1727483565
463,tidjikja,18.5564,-11.4271,30.64,44,100,2.6,MR,1727483566
464,watampone,-4.5386,120.3279,29.09,67,49,2.71,ID,1727483567
465,balabac,7.9868,117.0645,28.85,69,100,0.46,PH,1727483569
466,tyuratam,45.6507,63.3156,10.29,27,0,5.32,KZ,1727483570
467,luanda,-8.8368,13.2343,23.0,88,75,2.57,AO,1727483571
468,newman,37.3138,-121.0208,32.8,30,0,1.79,US,1727483573
469,santo antonio do ica,-3.1022,-67.9397,23.03,94,31,1.01,BR,1727483574
470,crane,31.3974,-102.3501,28.4,29,0,3.1,US,1727483576
471,barroquinha,-3.0189,-41.1361,24.47,81,100,2.92,BR,1727483577
472,harper,4.375,-7.7169,24.71,90,100,4.74,LR,1727483578
473,margate,51.3813,1.3862,10.39,68,14,0.89,GB,1727483580
474,sittwe,20.15,92.9,26.47,88,100,2.09,MM,1727483581
475,karratha,-20.7377,116.8463,25.35,41,0,4.09,AU,1727483582
476,varadero,23.1536,-81.2514,27.42,88,100,4.15,CU,1727483584
477,gaalkacyo,6.7697,47.4308,24.04,74,100,6.83,SO,1727483585
478,vilyuchinsk,52.9306,158.4028,8.15,60,9,1.07,RU,1727483586
479,borgarnes,64.5383,-21.9206,1.39,89,89,3.01,IS,1727483588
480,martapura,-3.4167,114.85,28.05,94,0,3.09,ID,1727483589
481,toliara,-23.35,43.6667,23.53,78,100,2.43,MG,1727483590
482,dzilam gonzalez,21.2833,-88.9333,25.59,87,100,1.34,MX,1727483592
483,yuzhno-kurilsk,44.0306,145.8556,17.18,86,100,5.38,RU,1727483593
484,zapolyarnyy,69.4154,30.8136,4.95,96,100,8.95,RU,1727483595
485,grandview,38.8858,-94.533,22.97,57,0,5.14,US,1727483597
486,lensk,60.7253,114.9278,2.84,86,72,3.76,RU,1727483599
487,lubang,13.8584,120.124,28.9,75,100,5.36,PH,1727483600
488,fada,7.25,4.0667,22.15,100,100,1.03,NG,1727483602
489,dubbo,-32.25,148.6167,18.07,48,0,8.23,AU,1727483603
490,trinidad,-14.8333,-64.9,27.2,43,40,2.1,BO,1727483604
491,mahdia,35.5047,11.0622,25.78,78,5,4.52,TN,1727483606
492,santa cruz,-17.8,-63.1667,22.7,56,0,0.0,BO,1727483607
493,kargasok,59.0556,80.8572,0.24,90,100,3.43,RU,1727483608
494,rufino,-34.2683,-62.7126,15.41,29,0,4.6,AR,1727483611
495,laredo,27.5064,-99.5075,34.14,33,0,3.6,US,1727483612
496,askoy,60.4092,5.226,6.16,70,75,5.66,NO,1727483614
497,beppu,33.2736,131.4919,25.94,75,100,1.9,JP,1727483615
498,crestview,30.7621,-86.5705,24.15,69,0,4.12,US,1727483616
499,la ronge,55.1001,-105.2842,17.14,42,20,6.17,CA,1727483618
500,swift current,50.2834,-107.8014,23.45,21,0,7.72,CA,1727483619
501,singkawang,0.9,109.0,28.04,79,96,2.2,ID,1727483621
502,madang,-5.2246,145.7966,30.01,65,92,2.28,PG,1727483622
503,magadan,59.5667,150.8,8.38,62,0,2.44,RU,1727483623
504,stettler,52.3168,-112.7186,15.13,42,8,3.49,CA,1727483625
505,rabaul,-4.1967,152.1721,27.65,78,100,1.77,PG,1727483626
506,codrington,-38.2667,141.9667,17.78,45,8,8.8,AU,1727483627
507,malanje,-9.5402,16.341,20.05,73,100,3.15,AO,1727483629
508,phek,25.6667,94.5,18.78,99,97,0.35,IN,1727483630
509,hammerfest,70.6634,23.6821,2.25,93,56,1.54,NO,1727483631
510,starozhilovo,54.2254,39.916,18.28,32,100,8.89,RU,1727483633
511,kitimat,54.0524,-128.6534,10.51,30,51,2.68,CA,1727483634
512,kapa'a,22.0752,-159.319,29.18,71,20,5.66,US,1727483636
513,san antonio de pale,-1.4014,5.6325,25.29,85,99,6.27,GQ,1727483637
514,inirida,3.8653,-67.9239,25.12,83,8,0.66,CO,1727483638
515,gereida,11.2811,25.1414,26.93,61,27,3.51,SD,1727483640
516,sena madureira,-9.0656,-68.6569,23.0,92,25,0.7,BR,1727483641
517,bam,29.106,58.357,25.61,26,0,4.23,IR,1727483642
518,sambava,-14.2667,50.1667,18.74,81,44,3.16,MG,1727483644
519,longido,-2.7333,36.6833,17.3,81,82,2.85,TZ,1727483645
520,gray,35.4167,-100.802,26.89,34,0,3.45,US,1727483646
521,serdar,38.9764,56.2757,13.53,16,95,4.25,TM,1727483648
522,akureyri,65.6835,-18.0878,0.96,75,100,1.03,IS,1727483649
523,kangding,30.0513,101.9603,17.66,80,38,0.62,CN,1727483651
524,salta,-24.7859,-65.4117,18.1,61,0,2.57,AR,1727483652
525,manchester,53.4809,-2.2374,5.88,89,3,2.06,GB,1727483644
526,santa elena de uairen,4.6167,-61.1333,20.3,86,97,1.65,VE,1727483656
527,tibati,6.4667,12.6333,19.39,98,100,1.26,CM,1727483658
528,noshiro,40.2039,140.0242,22.46,60,6,1.14,JP,1727483659
529,puerto deseado,-47.7503,-65.8938,7.21,78,96,7.27,AR,1727483660
530,salavan,15.7167,106.4167,26.52,83,13,1.03,LA,1727483662
531,yaita,36.8,139.9333,23.72,78,100,1.8,JP,1727483663
532,aoulef,26.9667,1.0833,32.4,21,73,4.03,DZ,1727483664
533,mutoko,-17.397,32.2268,16.25,47,0,2.11,ZW,1727483666
534,tshabong,-26.05,22.45,20.49,18,100,1.86,BW,1727483667
535,den burg,53.0542,4.7972,11.99,76,75,6.17,NL,1727483668
536,alo,6.5486,4.2686,24.45,92,100,2.78,NG,1727483670
537,baharly,38.4362,57.4316,14.88,22,99,2.28,TM,1727483671
