City_ID,City,Lat,Lng,Max Temp,Humidity,Cloudiness,Wind Speed,Country,Date
0,margaret river,-33.95,115.0667,288.06,47,36,4.28,AU,1727232103
1,queenstown,-31.8976,26.8753,284.49,88,71,1.19,ZA,1727232104
2,blackmans bay,-43.0167,147.3167,286.33,50,100,0.89,AU,1727232106
3,utrik,11.2278,169.8474,301.6,74,8,2.94,MH,1727232107
4,ilulissat,69.2167,-51.1,276.16,75,100,0.0,GL,1727232109
5,qaqortoq,60.7167,-46.0333,276.76,97,79,0.86,GL,1727232111
6,albany,42.6001,-73.9662,288.5,69,100,1.34,US,1727231843
7,yantarnyy,54.8717,19.9381,289.19,78,49,10.01,RU,1727232114
8,jamestown,42.097,-79.2353,289.83,92,100,7.2,US,1727232115
9,puerto natales,-51.7236,-72.4875,275.29,76,68,8.09,CL,1727232117
10,bethel,41.3712,-73.414,289.23,83,75,2.06,US,1727232118
11,arcot,12.9,79.3333,301.78,66,100,5.94,IN,1727232119
12,punta arenas,-53.15,-70.9167,275.21,75,40,10.29,CL,1727232121
13,adamstown,-25.066,-130.1015,292.79,71,98,8.2,PN,1727232122
14,coquimbo,-29.9533,-71.3436,285.0,85,0,2.06,CL,1727232125
15,port-aux-francais,-49.35,70.2167,275.6,68,59,10.86,TF,1727232126
16,ainaro,-8.9924,125.5082,300.8,50,37,2.73,TL,1727232128
17,cheraw,34.6977,-79.8834,298.15,96,0,3.09,US,1727232129
18,badger,64.8,-147.5333,280.36,86,100,3.6,US,1727232130
19,ushuaia,-54.8,-68.3,271.96,93,100,11.83,AR,1727232132
20,sao jose da coroa grande,-8.8978,-35.1478,296.78,78,94,5.3,BR,1727232133
21,bredasdorp,-34.5322,20.0403,284.63,94,100,0.71,ZA,1727232134
22,cangzhou,38.3167,116.8667,297.0,51,100,2.03,CN,1727232136
23,iqaluit,63.7506,-68.5145,278.0,86,75,3.6,CA,1727232137
24,isafjordur,66.0755,-23.124,273.72,78,99,6.09,IS,1727232138
25,palikir - national government center,6.9248,158.1611,304.56,70,40,3.09,FM,1727232140
26,rock springs,41.5875,-109.2029,292.84,32,0,2.06,US,1727232141
27,jilin,43.0,126.0,288.17,85,97,4.19,CN,1727232143
28,waitangi,-43.9535,-176.5597,282.49,77,28,6.26,NZ,1727232144
29,shouguang,36.88,118.7375,297.71,46,3,1.92,CN,1727232145
30,invercargill,-46.4,168.35,289.27,48,100,3.13,NZ,1727231862
31,udachny,66.4167,112.4,280.4,61,15,6.73,RU,1727232148
32,general roca,-39.0333,-67.5833,284.3,39,8,7.89,AR,1727232149
33,robbah,33.2797,6.9098,298.95,38,49,4.14,DZ,1727232151
34,new norfolk,-42.7826,147.0587,286.99,40,100,3.51,AU,1727232152
35,yellowknife,62.456,-114.3525,281.71,98,100,2.57,CA,1727232154
36,sarupathar,26.1984,93.8094,299.14,82,100,1.31,IN,1727232155
37,tiruchchendur,8.4833,78.1167,301.31,65,100,3.96,IN,1727232156
38,port douglas,-16.4833,145.4667,298.46,75,100,4.17,AU,1727232158
39,ulladulla,-35.35,150.4667,296.33,50,100,4.77,AU,1727232159
40,brokopondo,4.75,-55.1667,299.8,75,51,5.3,SR,1727232160
41,san antonio de pale,-1.4014,5.6325,297.79,82,94,4.57,GQ,1727232162
42,multan,30.1956,71.4753,305.09,62,6,3.09,PK,1727232163
43,atafu village,-8.5421,-172.5159,301.52,77,93,4.7,TK,1727232164
44,kapoeta,4.7717,33.5903,297.17,59,63,1.72,SS,1727232166
45,katsuren-haebaru,26.3369,127.8719,302.36,92,75,3.09,JP,1727232167
46,bilibino,68.0546,166.4372,272.86,66,100,0.61,RU,1727232169
47,village of oak creek (big park),34.7809,-111.7623,298.75,19,0,4.28,US,1727232170
48,sao vicente,-23.9631,-46.3919,293.7,26,2,0.64,BR,1727231947
49,vernon,50.2581,-119.2691,296.9,59,20,1.03,CA,1727232002
50,kattivakkam,13.2167,80.3167,303.79,83,100,6.93,IN,1727232176
51,longyearbyen,78.2186,15.6401,268.06,68,20,1.54,SJ,1727232177
52,port mathurin,-19.6833,63.4167,295.32,75,1,9.33,MU,1727232178
53,trogir,43.5125,16.2517,292.18,94,75,2.06,HR,1727232180
54,la passe,45.5549,-0.8967,289.37,91,100,4.51,FR,1727232181
55,lebu,-37.6167,-73.65,281.09,87,48,4.19,CL,1727232182
56,edinburgh of the seven seas,-37.0676,-12.3116,285.7,79,8,5.27,SH,1727232184
57,ondjiva,-17.0667,15.7333,295.17,64,24,2.06,AO,1727232185
58,talnakh,69.4865,88.3972,277.2,79,95,2.26,RU,1727232050
59,east london,-33.0153,27.9116,292.07,77,99,6.27,ZA,1727232188
60,stephenville,32.2207,-98.2023,298.22,73,40,1.54,US,1727232189
61,puerto aysen,-45.4,-72.7,275.16,99,99,2.17,CL,1727232191
62,arar,30.9753,41.0381,296.16,33,0,0.0,SA,1727232192
63,verkhnevilyuysk,63.4453,120.3167,282.6,86,100,2.63,RU,1727232193
64,ust-nera,64.5667,143.2,274.97,68,91,4.84,RU,1727232147
65,brookings,44.3114,-96.7984,289.33,80,0,0.0,US,1727231931
66,tiksi,71.6872,128.8694,273.21,98,100,8.18,RU,1727232197
67,yamada,39.4667,141.95,292.22,80,85,1.14,JP,1727232199
68,xiangxiang,27.7333,112.5333,300.87,52,19,1.07,CN,1727232200
69,acajutla,13.5928,-89.8275,299.18,87,100,5.85,SV,1727232202
70,saldanha,-33.0117,17.9442,285.18,94,100,3.33,ZA,1727232203
71,iskateley,67.6803,53.1512,272.4,77,83,1.38,RU,1727232204
72,stanovoye,52.7638,38.3582,282.35,33,30,3.39,RU,1727232206
73,fort st. john,56.2499,-120.8529,286.09,62,75,0.0,CA,1727232207
74,hope,33.6671,-93.5916,295.13,52,51,1.93,US,1727232208
75,codrington,-38.2667,141.9667,282.47,86,100,3.01,AU,1727232210
76,clewiston,26.7542,-80.9337,299.63,83,78,5.5,US,1727232211
77,franklin,39.9667,-83.0166,294.56,92,40,3.6,US,1727232213
78,yaren,-0.5472,166.916,302.0,68,27,3.43,NR,1727232214
79,papatowai,-46.5619,169.4708,285.93,44,97,2.34,NZ,1727232215
80,ribeira grande,38.5167,-28.7,296.91,95,100,8.49,PT,1727232195
81,qaisumah,28.3112,46.1273,301.13,28,0,6.17,SA,1727232218
82,geraldton,-28.7667,114.6,295.38,49,2,6.69,AU,1727232219
83,grytviken,-54.2811,-36.5092,272.79,94,100,4.88,GS,1727232221
84,baturaja,-4.1333,104.1667,301.01,79,98,1.12,ID,1727232222
85,whitehorse,60.7161,-135.0538,283.16,66,75,4.63,CA,1727232224
86,biltine,14.5333,20.9167,299.31,72,91,3.76,TD,1727232225
87,abadan,30.3392,48.3043,302.12,30,0,9.77,IR,1727232226
88,santa elena de uairen,4.6167,-61.1333,293.62,87,92,1.56,VE,1727232228
89,alotau,-10.3069,150.4462,303.28,64,47,3.7,PG,1727232229
90,olonkinbyen,70.9221,-8.7187,274.13,78,36,7.65,SJ,1727232230
91,bengkulu,-3.8004,102.2655,298.48,88,100,1.45,ID,1727232232
92,villa regina,-39.1,-67.0667,285.92,20,4,1.79,AR,1727232233
93,thai binh,20.45,106.3333,298.64,83,100,1.65,VN,1727232234
94,carnarvon,-24.8667,113.6333,298.39,37,0,3.73,AU,1727232236
95,bandar-e genaveh,29.5791,50.517,304.93,57,0,1.15,IR,1727232237
96,mejit,10.2753,170.8646,301.3,74,5,2.59,MH,1727232239
97,stanley,54.868,-1.6985,278.43,95,20,2.06,GB,1727232240
98,bonoua,5.2741,-3.595,296.2,96,30,1.82,CI,1727232241
99,damghan,36.1683,54.348,294.58,52,0,3.0,IR,1727232243
100,barakani,-12.1356,44.4317,297.09,81,16,1.09,KM,1727232244
101,toliara,-23.35,43.6667,296.23,69,0,2.31,MG,1727232245
102,wailua homesteads,22.0669,-159.378,300.59,75,40,6.17,US,1727232247
103,avarua,-21.2078,-159.775,298.18,73,40,4.63,CK,1727232250
104,selfoss,63.9331,-20.9971,273.79,81,6,5.79,IS,1727232251
105,alice springs,-23.7,133.8833,298.9,53,75,3.6,AU,1727232252
106,nar'yan-mar,67.6713,53.087,272.46,77,85,1.42,RU,1727232254
107,melfi,40.9965,15.6514,287.18,89,39,3.65,IT,1727232255
108,west island,-12.1568,96.8225,301.14,83,40,7.2,CC,1727232256
109,kone,-21.0595,164.8658,303.35,37,6,2.97,NC,1727232258
110,colares,38.7992,-9.4469,294.7,88,99,5.66,PT,1727232259
111,thompson,55.7435,-97.8558,284.24,100,75,1.54,CA,1727232261
112,puerto ayora,-0.7393,-90.3518,292.9,94,86,1.34,EC,1727232262
113,heihe,50.2441,127.4902,285.47,93,100,5.65,CN,1727232263
114,sept-iles,50.2001,-66.3821,282.15,88,8,1.34,CA,1727232265
115,viedma,-40.8135,-62.9967,282.96,31,5,3.62,AR,1727232266
116,anadyr,64.75,177.4833,282.43,57,20,4.0,RU,1727232143
117,mogocha,53.7333,119.7667,288.71,46,6,2.27,RU,1727232269
118,fredericton,45.9454,-66.6656,285.73,82,75,2.57,CA,1727232021
119,yarmouth,41.7057,-70.2286,289.34,89,100,2.57,US,1727232273
120,oodweyne,9.4092,45.064,297.16,48,2,6.66,SO,1727232276
121,yemva,62.59,50.8594,275.13,71,78,1.72,RU,1727232277
122,cliza,-17.6,-65.9333,286.52,55,0,3.48,BO,1727232278
123,nizhnevartovsk,60.9344,76.5531,275.16,87,100,4.0,RU,1727232280
124,ribeira brava,32.65,-17.0667,295.5,79,80,1.78,PT,1727232281
125,nuuk,64.1835,-51.7216,277.49,93,2,3.6,GL,1727232034
126,long beach,33.767,-118.1892,292.24,88,0,5.66,US,1727232013
127,fale old settlement,-9.3852,-171.2468,301.5,78,97,4.9,TK,1727232122
128,port elizabeth,-33.918,25.5701,289.99,98,75,4.12,ZA,1727232287
129,colon,9.3592,-79.9014,300.98,81,96,3.58,PA,1727232288
130,ancud,-41.8697,-73.8203,277.26,80,8,2.27,CL,1727232289
131,las heras,-46.5419,-68.9359,277.32,47,0,5.96,AR,1727232291
132,macapa,0.0389,-51.0664,301.14,83,40,3.6,BR,1727232292
133,hamilton,39.1834,-84.5333,293.4,93,0,3.09,US,1727232081
134,broken hill,-31.95,141.4333,288.92,81,100,2.63,AU,1727232295
135,el porvenir,13.7617,-87.3458,295.36,97,100,1.26,HN,1727232296
136,happy valley-goose bay,53.3168,-60.3315,278.32,93,0,1.03,CA,1727232297
137,pyoksong-up,38.0475,125.5567,294.47,77,84,3.09,KP,1727232299
138,hilo,19.7297,-155.09,301.45,78,0,3.6,US,1727232300
139,port alfred,-33.5906,26.891,290.47,92,100,5.04,ZA,1727232302
140,haiku-pauwela,20.9219,-156.3051,301.07,73,95,11.18,US,1727232303
141,bathsheba,13.2167,-59.5167,300.49,89,40,3.09,BB,1727232304
142,nouadhibou,20.931,-17.0347,300.14,65,26,7.2,MR,1727232306
143,khandyga,62.6667,135.6,280.05,59,91,1.72,RU,1727232307
144,shurugwi,-19.6702,30.0059,285.07,57,0,1.95,ZW,1727232308
145,hermanus,-34.4187,19.2345,284.71,86,100,0.99,ZA,1727232309
146,yebaishou,41.3975,119.6408,291.39,58,89,4.79,CN,1727232312
147,ihosy,-22.4,46.1167,289.82,91,72,2.56,MG,1727232315
148,maridi,4.9158,29.4742,292.29,97,62,0.21,SS,1727232316
149,quepos,9.4236,-84.1652,297.09,94,100,1.52,CR,1727232318
150,borgarnes,64.5383,-21.9206,277.18,80,52,5.28,IS,1727232319
151,lubaczow,50.157,23.1234,287.99,77,67,3.88,PL,1727232320
152,vilyuchinsk,52.9306,158.4028,287.3,66,100,5.14,RU,1727232321
153,zhumysker,49.3333,49.4,281.62,40,0,5.45,KZ,1727232323
154,castillos,-34.1667,-53.8333,287.13,98,100,4.64,UY,1727232324
155,touros,-5.1989,-35.4608,297.6,82,40,7.94,BR,1727232325
156,tinajo,29.0788,-13.7081,292.64,83,20,4.12,ES,1727232326
157,santa cruz,-17.8,-63.1667,300.85,74,0,3.09,BO,1727232330
158,vadso,70.0744,29.7487,280.24,76,40,2.06,NO,1727232331
159,arno,60.1167,18.6333,289.14,94,100,3.65,SE,1727232332
160,motril,36.7507,-3.5179,296.08,39,100,3.4,ES,1727232321
161,sakakah,29.9697,40.2064,298.91,36,0,3.56,SA,1727232335
162,tolanaro,-25.0319,46.9987,294.19,94,75,5.14,MG,1727232336
163,kamikawa,43.84,142.7711,290.3,48,92,2.2,JP,1727232152
164,flying fish cove,-10.4217,105.6791,299.97,89,100,4.63,CX,1727232338
165,georgetown,5.4112,100.3354,303.12,74,20,0.51,MY,1727232103
166,st. john's,47.5649,-52.7093,284.14,94,100,5.36,CA,1727232213
167,gunjur,13.2019,-16.7339,298.48,87,100,5.07,GM,1727232342
168,serhetabat,35.2799,62.3438,296.75,25,0,1.48,TM,1727232343
169,dazuocun,24.8862,118.9643,299.16,88,100,1.42,CN,1727232345
170,tirebolu,41.0069,38.8139,292.16,77,100,2.55,TR,1727232346
171,alderetes,-26.8167,-65.1333,289.1,55,7,2.57,AR,1727232129
172,tanjung selor,2.8372,117.3642,299.02,92,99,0.34,ID,1727232352
173,coronel oviedo,-25.4167,-56.45,302.39,28,53,1.7,PY,1727232353
174,cole harbour,44.6724,-63.4751,288.11,86,71,3.6,CA,1727232354
175,al ghayzah,16.2079,52.176,298.68,79,26,1.34,YE,1727232356
176,grand rapids,42.9634,-85.6681,291.78,96,100,0.0,US,1727232213
177,barclayville,4.6797,-8.2339,297.32,90,100,2.67,LR,1727232358
178,lihue,21.9789,-159.3672,301.73,72,40,6.17,US,1727232359
179,arraial do cabo,-22.9661,-42.0278,297.07,83,20,9.26,BR,1727232305
180,tura,25.5198,90.2201,296.33,98,100,1.64,IN,1727232362
181,pokhara,28.2333,83.9833,297.94,86,62,1.56,NP,1727232363
182,grand forks,47.9417,-97.4337,289.1,59,0,2.06,US,1727232365
183,sergeyevka,53.88,67.4158,279.54,60,85,3.95,KZ,1727232366
184,el jadid,33.2549,-8.506,296.43,78,44,4.15,MA,1727232367
185,susuman,62.7833,148.1667,276.71,37,51,5.88,RU,1727232368
186,collie,-33.3667,116.15,289.5,40,7,3.68,AU,1727232370
187,enewetak,11.3474,162.3373,302.23,73,75,4.09,MH,1727232371
188,dauphin,51.1494,-100.0502,293.23,56,0,4.63,CA,1727232374
189,vilyuysk,63.7553,121.6247,283.37,76,100,2.96,RU,1727232375
190,cabo san lucas,22.8909,-109.9124,303.76,79,3,6.49,MX,1727232377
191,mount gambier,-37.8333,140.7667,281.16,94,100,3.2,AU,1727232378
192,batesville,35.7698,-91.641,293.68,85,75,1.54,US,1727232379
193,chilca,-12.5211,-76.7372,289.58,89,92,5.04,PE,1727232380
194,tshikapa,-6.4167,20.8,297.27,54,93,0.65,CD,1727232382
195,hadibu,12.65,54.0333,298.69,85,66,7.72,YE,1727232383
196,lampasas,31.2168,-98.2336,297.62,79,19,2.73,US,1727232384
197,noosa heads,-26.3833,153.15,298.89,57,36,5.27,AU,1727232180
198,kerikeri,-35.2268,173.9474,291.34,44,16,1.85,NZ,1727232387
199,remire-montjoly,4.9167,-52.2667,300.17,89,100,0.51,GF,1727232237
200,klyuchi,52.2667,79.1667,279.8,54,2,3.84,RU,1727232389
201,nemuro,43.3236,145.575,288.17,72,100,4.97,JP,1727232391
202,bogra,24.85,89.3667,299.22,92,100,5.41,BD,1727232392
203,brezoi,45.338,24.2486,287.17,67,51,1.27,RO,1727232393
204,afaahiti,-17.75,-149.2833,300.08,71,75,2.74,PF,1727232395
205,vila velha,-20.3297,-40.2925,296.12,91,40,2.57,BR,1727232396
206,quchan,37.106,58.5095,291.11,62,0,3.59,IR,1727232397
207,korla,41.7597,86.1469,296.95,29,67,1.72,CN,1727232398
208,balikpapan,-1.2675,116.8289,301.7,70,20,1.54,ID,1727232400
209,las tablas,7.7667,-80.2833,298.25,99,100,3.23,PA,1727232401
210,nosy varika,-20.5833,48.5333,293.02,93,28,1.33,MG,1727232402
211,tongging,2.8969,98.5262,298.56,65,99,1.39,ID,1727232403
212,miramichi,47.0043,-65.4654,285.6,88,100,1.97,CA,1727232404
213,coahuayana de hidalgo,18.7,-103.6583,299.83,93,100,0.74,MX,1727232406
214,rio grande,-32.035,-52.0986,291.52,97,100,6.54,BR,1727232407
215,puerto baquerizo moreno,-0.9,-89.6,292.96,86,95,3.86,EC,1727232408
216,tukrah,32.5341,20.5791,297.35,86,2,1.37,LY,1727232253
217,tosontsengel,48.7567,98.2839,284.54,29,14,7.29,MN,1727232411
218,portland,45.5234,-122.6762,301.62,58,80,1.79,US,1727232412
219,san fernando,15.0286,120.6898,305.0,64,92,2.36,PH,1727232181
220,talavera de la reina,39.9635,-4.8308,288.58,78,100,1.65,ES,1727232414
221,ati,13.2154,18.3353,299.33,63,98,2.83,TD,1727232416
222,vila franca do campo,37.7167,-25.4333,296.38,87,58,7.69,PT,1727232417
223,al kharijah,25.4514,30.5464,296.65,41,0,4.71,EG,1727232418
224,weno,7.4515,151.8468,305.12,74,75,3.6,FM,1727232419
225,loutraki,37.9783,22.9778,292.41,69,1,1.91,GR,1727232421
226,encheng,22.1839,112.3026,301.58,79,98,1.02,CN,1727232422
227,saudarkrokur,65.7461,-19.6394,275.29,85,56,5.82,IS,1727232423
228,hemsby,52.6971,1.6918,283.14,69,100,5.88,GB,1727232424
229,cynthiana,38.3904,-84.2941,294.6,93,69,2.07,US,1727232427
230,padang,-0.9492,100.3543,303.18,84,100,0.93,ID,1727232428
231,petropavlovsk-kamchatsky,53.0452,158.6483,286.48,58,20,2.0,RU,1727232429
232,papao,-17.75,-149.55,300.97,71,73,0.53,PF,1727232431
233,azare,11.6765,10.1948,296.83,78,96,1.93,NG,1727232432
234,minas de marcona,-15.2119,-75.1103,285.05,84,49,5.17,PE,1727232433
235,kashin,57.3592,37.6081,282.23,66,34,3.48,RU,1727232434
236,college,64.8569,-147.8028,280.62,81,75,3.6,US,1727232436
237,ixtapa,20.7,-105.2,299.3,97,100,0.49,MX,1727232178
238,llanes,43.4198,-4.7549,290.77,77,100,2.35,ES,1727232438
239,acapulco de juarez,16.8634,-99.8901,297.4,93,100,6.46,MX,1727232439
240,ares,-6.1944,-35.1603,298.2,82,34,5.56,BR,1727232440
241,kaiyuan,23.6977,103.3037,297.73,64,41,0.84,CN,1727232442
242,holualoa,19.6228,-155.9522,299.72,79,100,2.57,US,1727232443
243,tadine,-21.55,167.8833,297.42,68,13,8.02,NC,1727232444
244,ust'-kut,56.7938,105.7672,279.46,94,100,3.06,RU,1727232445
245,maragogi,-9.0122,-35.2225,296.23,81,61,4.65,BR,1727232388
246,uturoa,-16.7333,-151.4333,299.96,74,28,3.84,PF,1727232448
247,gillette,44.2911,-105.5022,290.34,59,6,1.34,US,1727232449
248,laojunmiao,39.8333,97.7333,290.37,40,23,1.98,CN,1727232450
249,altai,46.3722,96.2583,283.59,28,29,2.47,MN,1727232452
250,constantia,44.1833,28.65,288.54,80,100,1.05,RO,1727232453
251,waspan,14.7419,-83.9717,297.36,98,100,2.99,NI,1727232454
252,merizo village,13.2658,144.6691,303.47,81,54,4.71,GU,1727232455
253,sudzha,51.1976,35.2726,284.55,41,10,3.56,RU,1727232457
254,naze,28.3667,129.4833,301.66,83,20,6.88,JP,1727232341
255,novokubansk,45.117,41.0267,286.6,57,33,3.83,RU,1727232459
256,arawa,-6.2132,155.5367,302.05,76,100,1.86,PG,1727232460
257,gulf shores,30.246,-87.7008,300.93,92,0,0.0,US,1727232462
258,saryozek,44.3583,77.9753,291.35,22,100,1.56,KZ,1727232463
259,aasiaat,68.7098,-52.8699,275.08,82,45,3.15,GL,1727232464
260,akjoujt,19.6969,-14.4164,306.72,39,11,3.37,MR,1727232465
261,port lincoln,-34.7333,135.8667,285.75,76,100,9.77,AU,1727232467
262,pisco,-13.7,-76.2167,289.27,88,0,6.17,PE,1727232280
263,qarah bagh,34.9402,61.7759,294.65,27,0,3.15,AF,1727232469
264,verkhovazh'ye,60.7472,42.0465,278.81,76,37,2.64,RU,1727232470
265,ridder,50.355,83.5133,279.02,61,7,1.28,KZ,1727232471
266,usogorsk,63.4106,48.6872,275.69,82,91,2.23,RU,1727232473
267,prado,-17.3411,-39.2208,295.97,83,6,3.04,BR,1727232474
268,mpulungu,-8.7623,31.1141,294.96,64,100,2.62,ZM,1727232475
269,zouerate,22.7187,-12.4521,303.28,44,80,4.84,MR,1727232476
270,dalyellup,-33.3986,115.6168,288.83,47,16,3.48,AU,1727232478
271,nema,57.5067,50.5011,276.41,71,23,1.88,RU,1727232479
272,prince rupert,54.3161,-130.3201,284.98,84,100,10.8,CA,1727232480
273,landerneau,48.4525,-4.2525,287.57,94,0,3.09,FR,1727232481
274,dudinka,69.4058,86.1778,277.04,84,98,4.99,RU,1727232483
275,saint-pierre,-21.3393,55.4781,293.97,68,0,1.54,RE,1727232484
276,afzalpur,17.2,76.35,297.16,93,100,3.89,IN,1727232485
277,kittila,67.6647,24.8936,278.23,100,100,1.03,FI,1727232487
278,mundo novo,-11.8589,-40.4725,292.76,89,30,3.24,BR,1727232488
279,ierapetra,35.01,25.7353,295.41,51,0,2.43,GR,1727232489
280,yeppoon,-23.1333,150.7333,301.62,53,18,4.72,AU,1727232490
281,daru,-9.0763,143.2092,300.15,84,52,6.3,PG,1727232492
282,waingapu,-9.6567,120.2641,303.4,62,23,3.75,ID,1727232493
283,chonchi,-42.6128,-73.8092,275.99,90,7,1.2,CL,1727232494
284,ouesso,1.6136,16.0517,293.92,98,97,0.61,CG,1727232495
285,okhotsk,59.3833,143.3,281.65,40,53,2.68,RU,1727232496
286,torata,-17.0769,-70.8433,288.04,43,76,0.12,PE,1727232498
287,saint-philippe,-21.3585,55.7679,293.92,78,48,4.36,RE,1727232499
288,fortuna,40.5982,-124.1573,287.34,87,23,0.31,US,1727232500
289,port saint john's,-31.6229,29.5448,292.39,87,38,2.89,ZA,1727232501
290,bomdila,27.25,92.4,289.81,92,100,1.06,IN,1727232503
291,gagarin,55.5529,34.9954,283.16,53,62,4.15,RU,1727232505
292,san julian,21.0167,-102.1667,288.55,74,55,3.16,MX,1727232506
293,north platte,41.1239,-100.7654,289.33,58,0,0.0,US,1727232508
294,al hufuf,25.3646,49.5653,304.34,16,0,7.2,SA,1727232412
295,orcopampa,-15.2661,-72.3417,283.46,65,95,1.42,PE,1727232512
296,hobyo,5.3505,48.5268,297.74,85,42,9.74,SO,1727232513
297,atuncolla,-15.6833,-70.15,283.73,58,57,1.99,PE,1727232515
298,port augusta,-32.5,137.7667,293.66,56,87,8.02,AU,1727232516
299,sinabang,2.4803,96.3801,301.96,75,94,1.22,ID,1727232517
300,sitka,57.0531,-135.33,285.09,82,100,3.6,US,1727232518
301,bechar,31.6167,-2.2167,295.33,83,20,1.54,DZ,1727232520
302,nova sintra,14.8667,-24.7167,297.61,80,80,3.97,CV,1727232521
303,isiolo,0.3546,37.5822,291.6,71,42,3.09,KE,1727232522
304,tobelo,1.7284,128.0095,303.83,65,73,2.77,ID,1727232523
305,howard springs,-12.497,131.047,304.81,72,100,3.48,AU,1727232525
306,towson,39.4015,-76.6019,291.24,87,100,3.09,US,1727232526
307,newman,37.3138,-121.0208,306.34,48,0,1.34,US,1727232527
308,farasan,16.7022,42.1183,303.53,78,2,2.64,SA,1727232528
309,novyy urengoy,66.0833,76.6333,273.58,99,100,6.97,RU,1727232529
310,praia da vitoria,38.7333,-27.0667,297.29,83,75,9.07,PT,1727232531
311,hawaiian paradise park,19.5933,-154.9731,301.33,75,0,3.6,US,1727232532
312,al jawf,29.5,38.75,296.33,38,0,1.31,SA,1727232533
313,hithadhoo,-0.6,73.0833,301.91,74,62,7.98,MV,1727232534
314,tevriz,57.509,72.4042,277.0,78,96,4.36,RU,1727232536
315,seredyna-buda,52.189,34.0364,284.66,52,12,4.19,UA,1727232537
316,saurimo,-9.6608,20.3916,293.83,40,87,1.27,AO,1727232538
317,torghay,49.6339,63.4981,280.39,49,76,5.17,KZ,1727232539
318,enriquillo,17.9,-71.2333,299.87,86,100,3.27,DO,1727232541
319,kailua-kona,19.6406,-155.9956,301.79,78,100,2.57,US,1727232542
320,ilhabela,-23.7781,-45.3581,294.94,86,1,1.56,BR,1727232543
321,mucumpiz,8.4167,-71.1333,286.15,88,98,1.14,VE,1727232544
322,acarau,-2.8856,-40.12,298.34,80,21,7.15,BR,1727232546
323,zhongshu,24.5167,103.7667,295.71,65,26,1.48,CN,1727232547
324,nacala,-14.5428,40.6728,292.88,72,1,3.64,MZ,1727232548
325,kas,36.2018,29.6377,295.58,57,0,1.85,TR,1727232549
326,karasuyama,36.65,140.15,292.42,87,100,2.79,JP,1727232551
327,yambio,4.5721,28.3955,293.68,97,100,1.44,SS,1727232552
328,arkhangel'sk,64.5401,40.5433,282.21,81,40,3.0,RU,1727232553
329,vorkuta,67.5,64.0,273.54,84,100,11.36,RU,1727232554
330,cill airne,52.05,-9.5167,283.24,91,100,1.71,IE,1727232556
331,chibougamau,49.9168,-74.3659,287.94,88,100,4.12,CA,1727232557
332,xinshi,31.047,113.141,300.71,37,97,0.88,CN,1727232558
333,manaure,11.7751,-72.4445,302.91,72,68,3.46,CO,1727232559
334,parauapebas,-6.0675,-49.9022,298.52,58,38,0.58,BR,1727232561
335,aksu,41.1231,80.2644,297.4,29,5,1.32,CN,1727232562
336,mburucuya,-28.0454,-58.2245,295.95,78,100,5.09,AR,1727232563
337,kindu,-2.95,25.95,294.01,79,54,1.3,CD,1727232564
338,hammerfest,70.6634,23.6821,278.4,70,16,1.54,NO,1727232566
339,jales,-20.2689,-50.5458,299.9,23,0,2.95,BR,1727232567
340,san juan nepomuceno,9.9516,-75.082,297.59,90,74,1.58,CO,1727232568
341,geneina,13.45,22.45,296.6,81,99,2.15,SD,1727232569
342,sorong,-0.8833,131.25,303.47,64,5,2.21,ID,1727232273
343,tha khanon,9.0302,98.9529,303.05,68,98,0.89,TH,1727232572
344,kruisfontein,-34.0033,24.7314,288.09,94,100,0.78,ZA,1727232573
345,colac,-38.3333,143.5833,283.06,85,100,4.52,AU,1727232574
346,henderson,36.0397,-114.9819,307.66,14,0,3.09,US,1727232477
347,kiunga,-6.1219,141.2906,302.63,76,66,1.49,PG,1727232577
348,saint-joseph,-21.3667,55.6167,293.36,78,41,4.31,RE,1727232578
349,turaif,31.6725,38.6637,295.29,37,0,3.6,SA,1727232428
350,barra do corda,-5.5,-45.25,299.04,55,20,2.02,BR,1727232581
351,constitucion,-35.3333,-72.4167,280.84,79,3,3.67,CL,1727232582
352,al fuwayliq,26.4432,43.2534,298.21,24,0,2.66,SA,1727232585
353,manta,-0.95,-80.7333,295.03,88,100,4.12,EC,1727232588
354,port moresby,-9.4431,147.1797,306.83,52,40,5.14,PG,1727232395
355,pemangkat,1.1667,108.9667,299.94,81,100,1.71,ID,1727232591
356,yuzhno-kurilsk,44.0306,145.8556,288.84,69,34,5.99,RU,1727232592
357,magadan,59.5667,150.8,280.22,45,2,4.47,RU,1727232593
358,berezovyy,51.6667,135.7,288.36,60,99,2.19,RU,1727232596
359,coracora,-15.0333,-73.7833,285.46,58,39,0.47,PE,1727232598
360,vorgashor,67.5833,63.95,273.38,83,100,11.35,RU,1727232599
361,inhambane,-23.865,35.3833,292.88,74,1,2.51,MZ,1727232600
362,sittwe,20.15,92.9,299.4,92,100,5.31,MM,1727232602
363,jiexiu,37.0244,111.9125,295.3,54,100,1.45,CN,1727232603
364,colonia,50.9333,6.95,288.69,89,40,2.57,DE,1727232604
365,ta`u,-14.2336,-169.5144,299.71,82,26,5.31,AS,1727232607
366,naldurg,17.8167,76.3,297.12,89,100,3.79,IN,1727232609
367,tsiombe,-25.3,45.4833,292.46,93,26,2.43,MG,1727232610
368,gore,-46.1028,168.9436,285.74,48,96,2.14,NZ,1727232611
369,coruripe,-10.1256,-36.1756,296.31,79,97,4.71,BR,1727232613
370,labytnangi,66.6572,66.4183,276.34,66,100,8.43,RU,1727232614
371,bernhardswald,49.1,12.25,285.62,83,68,2.02,DE,1727232615
372,smithers,54.7804,-127.1743,283.33,100,100,0.0,CA,1727232617
373,mangai,-4.05,19.5333,294.27,98,77,0.52,CD,1727232618
374,beckley,37.7782,-81.1882,292.38,93,75,2.06,US,1727232619
375,forster,-32.1667,152.5167,301.14,41,94,5.17,AU,1727232621
376,zhangatas,43.5667,69.75,289.75,37,91,2.24,KZ,1727232622
377,nguigmi,14.2495,13.1092,298.9,76,5,1.41,NE,1727232624
378,tonj,7.2737,28.6822,293.98,98,72,1.13,SS,1727232625
379,datca,36.7378,27.6842,293.64,66,0,2.9,TR,1727232626
380,dakhla,23.6848,-15.958,293.58,85,5,9.24,EH,1727232628
381,ghanzi,-21.5667,21.7833,293.63,46,13,2.08,BW,1727232629
382,mandalgovi,45.7625,106.2708,286.37,52,14,7.99,MN,1727232630
383,sisimiut,66.9395,-53.6735,278.22,76,63,3.11,GL,1727232632
384,chokwe,-24.5333,32.9833,292.3,63,0,3.9,MZ,1727232633
385,nakanojomachi,36.5833,138.85,295.82,49,5,2.74,JP,1727232634
386,diu,20.7141,70.9822,300.18,81,57,5.33,IN,1727232636
387,kilindoni,-7.9139,39.6668,297.66,81,64,3.74,TZ,1727232637
388,troitsko-pechorsk,62.7084,56.1964,272.64,94,94,1.59,RU,1727232639
389,castlegar,49.2998,-117.6689,293.31,74,4,0.66,CA,1727232640
390,namibe,-15.1961,12.1522,292.18,83,85,1.71,AO,1727232641
391,chicoana,-25.1009,-65.5331,294.18,64,36,1.55,AR,1727232643
392,luderitz,-26.6481,15.1594,285.64,90,29,3.56,NA,1727232644
393,braslaw,55.644,27.0455,287.02,64,71,4.06,BY,1727232645
394,malango,-2.9627,119.9001,302.34,52,72,1.95,ID,1727232647
395,oranjemund,-28.55,16.4333,284.02,95,52,1.8,NA,1727232648
396,dolni chiflik,42.9833,27.7167,289.42,96,16,0.63,BG,1727232649
397,sokoni,-6.4333,39.55,298.24,73,90,4.11,TZ,1727232651
398,hassi messaoud,31.6804,6.0729,297.07,64,40,2.06,DZ,1727232652
399,muroto-misakicho,33.2833,134.15,298.46,66,53,6.45,JP,1727232654
400,kotabumi,-4.8333,104.9,302.04,66,95,1.38,ID,1727232655
401,boguchany,58.3814,97.4531,279.22,73,91,4.94,RU,1727232656
402,hasaki,35.7333,140.8333,296.21,90,100,8.49,JP,1727232658
403,sampit,-2.5333,112.95,303.95,62,92,0.75,ID,1727232659
404,revda,56.801,59.9303,273.9,72,3,2.68,RU,1727232660
405,najran,17.4924,44.1277,295.28,25,15,1.35,SA,1727232662
406,pacific grove,36.6177,-121.9166,289.21,91,20,3.13,US,1727232663
407,saipan,15.1355,145.701,303.54,79,40,5.14,MP,1727232453
408,urengoy,65.9667,78.3667,274.15,98,100,6.05,RU,1727232666
409,dadukou,26.5479,101.7054,300.11,64,41,0.83,CN,1727232667
410,taltal,-25.4,-70.4833,288.73,69,0,1.04,CL,1727232669
411,wuhai,39.6647,106.8122,293.63,41,9,3.17,CN,1727232670
412,mamonovo,54.4643,19.938,287.59,81,78,7.59,RU,1727232671
413,sacramento,38.4666,-121.3177,305.18,26,0,1.54,US,1727232673
414,chake chake,-5.2459,39.7666,296.02,79,72,3.0,TZ,1727232674
415,arenapolis,-14.4503,-56.8461,299.76,26,0,1.01,BR,1727232675
416,port isabel,26.0734,-97.2086,302.05,82,20,4.63,US,1727232677
417,seydi,39.4816,62.9137,295.99,20,4,5.07,TM,1727232678
418,mandan,46.8267,-100.8896,292.04,57,0,1.54,US,1727232437
419,el sauzal de rodriguez,31.9,-116.6833,292.27,64,33,1.9,MX,1727232681
420,nadi,-17.8,177.4167,300.15,61,75,5.66,FJ,1727232682
421,kununurra,-15.7667,128.7333,307.14,38,2,3.6,AU,1727232684
422,calbuco,-41.768,-73.1273,279.61,79,64,3.95,CL,1727232685
423,nagqu,31.5,92.0,280.71,46,99,1.37,CN,1727232394
424,zambezi,-13.5432,23.1047,290.64,40,51,2.83,ZM,1727232689
425,gazli,40.1333,63.45,295.82,20,15,6.18,UZ,1727232690
426,kingston,17.997,-76.7936,302.68,79,40,5.66,JM,1727232692
427,pariaman,-0.619,100.12,303.18,77,98,0.31,ID,1727232693
428,cidreira,-30.1811,-50.2056,291.68,95,91,5.51,BR,1727232696
429,barah,13.7,30.3667,300.26,62,12,3.68,SD,1727232697
430,kyren,51.6828,102.1408,283.31,71,42,3.81,RU,1727232699
431,labuan,5.2767,115.2417,302.35,83,20,1.03,MY,1727232700
432,srednyaya yelyuzan',53.0241,45.9529,278.31,49,92,1.55,RU,1727232701
433,chinde,26.8212,87.7095,298.1,88,100,2.06,NP,1727232703
434,banyo,6.75,11.8167,289.48,95,59,1.01,CM,1727232704
435,salym,60.0625,71.4789,274.13,76,53,5.05,RU,1727232707
436,bestobe,52.4994,73.0975,279.28,62,6,4.51,KZ,1727232708
437,severo-yeniseyskiy,60.3725,93.0408,274.18,94,100,3.29,RU,1727232710
438,punta del este,-34.9667,-54.95,287.21,96,100,6.69,UY,1727232711
439,nishinoomote,30.7333,131.0,301.46,78,75,6.69,JP,1727232712
440,barcelos,41.5388,-8.6151,289.76,90,100,1.39,PT,1727232714
441,vylkove,45.4021,29.586,291.42,87,35,2.87,UA,1727232715
442,lompoc,34.6391,-120.4579,290.76,88,100,3.09,US,1727232717
443,benito juarez,19.385,-99.165,292.04,69,75,4.12,MX,1727232719
444,arnemuiden,51.5,3.6761,289.25,86,75,7.2,NL,1727232721
445,robore,-18.3333,-59.75,300.33,27,0,1.78,BO,1727232722
446,caleta de carquin,-11.0925,-77.6267,290.47,90,91,4.38,PE,1727232723
447,kourou,5.1552,-52.6478,299.73,83,37,3.17,GF,1727232648
448,bakchar,57.0186,82.0711,275.41,75,68,4.42,RU,1727232726
449,kavaratti,10.5669,72.642,300.06,87,100,6.87,IN,1727232728
450,itacare,-14.2775,-38.9967,295.32,87,1,1.75,BR,1727232729
451,sanibel,26.449,-82.0223,302.04,83,100,1.79,US,1727232730
452,abalak,58.1286,68.5944,275.24,87,41,4.57,RU,1727232732
453,tarata,-17.6167,-66.0167,291.83,49,0,2.64,BO,1727232733
454,tralee,52.2704,-9.7026,282.44,94,100,2.48,IE,1727232734
455,prieska,-29.6641,22.7474,286.26,20,4,2.04,ZA,1727232736
456,goderich,43.7501,-81.7165,292.33,94,100,6.17,CA,1727232739
457,baykal'sk,51.5058,104.1469,281.38,87,99,2.43,RU,1727232740
458,bandarbeyla,9.4942,50.8122,297.81,79,85,10.54,SO,1727232741
459,east ballina,-28.8667,153.5833,297.56,52,34,7.9,AU,1727232743
460,kovur,14.4833,79.9833,303.72,63,100,3.92,IN,1727232744
461,ubinskoye,55.3068,79.6802,277.02,66,14,5.77,RU,1727232745
462,booue,-0.0921,11.9385,295.22,99,99,0.71,GA,1727232747
463,santana do livramento,-30.8908,-55.5328,293.21,99,83,3.88,BR,1727232748
464,pozoblanco,38.3791,-4.8483,289.46,61,100,1.71,ES,1727232750
465,kodiak,57.79,-152.4072,282.88,57,100,3.09,US,1727232751
466,harper,4.375,-7.7169,297.73,88,100,3.49,LR,1727232752
467,kuytun,54.3419,101.5036,279.6,63,100,4.28,RU,1727232754
468,jalasjarvi,62.5,22.75,287.12,93,100,3.53,FI,1727232755
469,santa cruz del sur,20.7147,-77.9956,300.69,76,100,4.25,CU,1727232756
470,sharan,54.8167,54.0,277.38,56,11,1.65,RU,1727232758
471,la'ie,21.6477,-157.9253,303.13,76,92,2.68,US,1727232759
472,zilair,52.2332,57.4392,275.3,69,3,1.62,RU,1727232760
473,el granada,37.5027,-122.4694,292.83,81,20,4.63,US,1727232644
474,mili,6.0815,171.735,301.7,69,5,1.18,MH,1727232763
475,lekki,6.3607,4.8333,295.93,97,98,0.32,NG,1727232764
476,tynda,55.1667,124.7167,286.07,71,32,1.27,RU,1727232766
477,al qutayfah,33.7385,36.6007,291.96,47,0,1.71,SY,1727232767
478,dingzhou,38.5131,114.9956,296.43,59,73,4.66,CN,1727232769
479,kill devil hills,36.0307,-75.676,295.36,86,40,4.12,US,1727232770
480,kupiskis,55.8333,24.9667,287.72,61,21,4.81,LT,1727232771
481,villa huidobro,-34.8383,-64.5869,284.85,43,0,3.43,AR,1727232773
482,siatista,40.2619,21.5442,284.03,84,28,1.2,GR,1727232774
483,san lawrenz,36.0553,14.204,293.63,88,3,1.55,MT,1727232775
484,mumbwa,-14.9783,27.0619,289.53,48,3,2.13,ZM,1727232777
485,katima mulilo,-17.5,24.2667,291.92,51,0,2.1,NA,1727232778
486,negara,-8.3151,114.6025,302.49,63,54,2.54,ID,1727232780
487,anori,-3.7728,-61.6442,297.98,67,65,1.46,BR,1727232781
488,lazaro cardenas,17.9583,-102.2,299.02,85,100,1.65,MX,1727232782
489,xilin hot,43.9667,116.0333,285.89,58,0,1.44,CN,1727232784
490,sena madureira,-9.0656,-68.6569,298.51,63,55,0.71,BR,1727232785
491,lorengau,-2.0226,147.2712,301.94,76,100,4.08,PG,1727232786
492,tionk essil,12.7856,-16.5217,296.69,94,100,2.62,SN,1727232788
493,lajas,18.05,-67.0593,300.96,64,8,2.68,PR,1727232789
494,strezhevoy,60.7333,77.5889,274.37,83,100,6.81,RU,1727232791
495,northam,51.0333,-4.2167,284.6,94,100,2.38,GB,1727232792
496,mpika,-11.8343,31.4529,286.15,84,9,1.7,ZM,1727232793
497,smara,26.7384,-11.6719,293.07,76,0,5.21,EH,1727232795
498,amga,60.8953,131.9608,283.19,52,26,2.6,RU,1727232796
499,crane,31.3974,-102.3501,301.06,45,24,3.57,US,1727232797
500,fortaleza,-3.7227,-38.5247,299.94,78,75,7.72,BR,1727232799
501,chegdomyn,51.1167,133.0167,284.18,91,100,1.66,RU,1727232800
502,santyoku,37.4406,129.1708,295.61,74,58,2.0,KR,1727232801
503,bisert',56.8617,59.0523,273.99,74,4,2.0,RU,1727232803
504,sangkhla buri,15.1555,98.4536,297.08,91,100,0.55,TH,1727232804
505,carauari,-4.8828,-66.8958,301.98,41,67,0.97,BR,1727232805
506,kavieng,-2.5744,150.7967,302.86,71,22,5.29,PG,1727232807
507,myadzyel,54.8731,26.9359,287.27,65,61,4.44,BY,1727232810
508,san pedro pochutla,15.7333,-96.4667,295.77,97,100,1.83,MX,1727232811
509,ad dilam,23.9915,47.1627,302.38,21,6,1.24,SA,1727232812
510,nova vicosa,-17.8919,-39.3719,296.12,83,2,3.76,BR,1727232814
511,qarqaraly,49.4058,75.4742,277.84,52,100,2.63,KZ,1727232815
512,port huron,42.9709,-82.4249,293.7,96,100,4.12,US,1727232816
513,conduaga,8.862,117.4893,299.95,84,100,1.93,PH,1727232817
514,laguna,38.421,-121.4238,304.25,31,0,0.0,US,1727232818
515,thunder bay,48.4001,-89.3168,283.14,100,20,1.03,CA,1727232820
516,hauterive,46.0901,3.4459,285.57,92,43,2.59,FR,1727232821
517,igarka,67.4667,86.5833,274.81,97,100,6.46,RU,1727232822
518,sultanah,24.4926,39.5857,304.4,15,0,1.54,SA,1727232824
519,shirvan,39.9509,48.8994,293.31,75,14,0.38,AZ,1727232825
520,richards bay,-28.783,32.0377,290.9,81,0,3.24,ZA,1727232651
521,malpica,43.3228,-8.8105,291.69,95,100,6.09,ES,1727232827
522,sitia,35.2,26.0986,295.74,62,0,3.43,GR,1727232829
523,coxim,-18.5067,-54.76,304.25,22,5,0.63,BR,1727232830
524,bloomfield,40.8068,-74.1854,290.98,73,0,5.81,US,1727232675
525,guelma,36.4621,7.4261,295.1,63,100,1.42,DZ,1727232832
526,axim,4.8699,-2.2405,297.05,94,50,2.93,GH,1727232834
527,ambon,-3.6954,128.1814,304.23,66,40,2.57,ID,1727232817
528,sertania,-8.0736,-37.2644,293.32,75,58,2.91,BR,1727232836
529,cambria,35.5641,-121.0808,294.13,94,39,0.89,US,1727232837
530,dong ha,16.8163,107.1003,301.36,79,92,1.12,VN,1727232839
531,bani walid,31.7566,13.9942,295.38,76,28,1.83,LY,1727232840
532,genhe,50.7833,121.5167,289.55,47,5,1.05,CN,1727232841
533,kansanshi,-12.0951,26.4273,287.94,57,96,1.32,ZM,1727232844
534,bantay,17.5847,120.3892,303.69,78,100,2.55,PH,1727232845
535,portage la prairie,49.9728,-98.2926,289.88,56,0,3.98,CA,1727232846
536,mishan,45.55,131.8833,292.98,64,57,5.94,CN,1727232847
537,petrolina,-9.3986,-40.5008,301.18,47,0,7.2,BR,1727232849
538,mount pearl,47.5166,-52.7813,283.68,94,100,4.12,CA,1727232850
539,valparaiso,-33.0393,-71.6273,285.95,66,0,1.54,CL,1727232851
540,muisne,0.6,-80.0333,296.54,82,100,3.42,EC,1727232852
541,khanty-mansiysk,61.0042,69.0019,274.21,64,0,4.0,RU,1727232854
542,bairnsdale,-37.8333,147.6167,285.96,88,100,4.02,AU,1727232855
543,changji,44.0167,87.3167,296.59,43,0,2.0,CN,1727232856
544,niquelandia,-14.4739,-48.4597,300.27,28,19,1.7,BR,1727232857
545,qianzhou,28.3167,109.7167,302.2,41,4,0.67,CN,1727232858
546,markala,13.7021,-6.0659,297.69,87,100,2.81,ML,1727232861
547,sheregesh,52.9209,87.9869,277.69,64,100,2.92,RU,1727232862
548,spittal an der drau,46.8,13.5,287.65,95,100,0.67,AT,1727232863
549,tazovsky,67.4667,78.7,275.6,95,100,5.91,RU,1727232865
550,luau,-10.7073,22.2247,293.18,39,35,1.61,AO,1727232866
551,mersa matruh,31.3525,27.2453,295.26,68,0,2.57,EG,1727232867
552,media luna,20.1419,-77.435,300.32,83,100,4.48,CU,1727232868
553,grand falls-windsor,48.9332,-55.6649,282.32,92,100,2.89,CA,1727232870
554,camana,-16.6228,-72.7111,289.83,86,61,2.18,PE,1727232871
555,oslo,59.9127,10.7461,286.87,97,100,0.93,NO,1727232872
556,azov,47.1078,39.4165,286.74,41,100,4.18,RU,1727232873
557,vale da amoreira,39.0697,-7.6985,292.15,96,100,2.8,PT,1727232875
558,mayqayyng,51.4625,75.7986,279.6,55,6,4.06,KZ,1727232876
559,ciudad lazaro cardenas,17.9583,-102.2,299.04,85,100,1.59,MX,1727232877
560,tekeli,44.83,78.8239,290.16,33,100,0.65,KZ,1727232878
561,sechura,-5.5569,-80.8222,291.15,85,2,5.24,PE,1727232880
562,aldinga beach,-35.2793,138.4604,287.66,88,100,10.15,AU,1727232881
563,grande prairie,55.1667,-118.8027,288.25,63,75,3.09,CA,1727232882
564,ulety,51.3572,112.4849,290.21,35,15,1.3,RU,1727232883
565,silkeborg,56.1697,9.5451,286.33,76,93,8.71,DK,1727232885
566,grootfontein,-19.5667,18.1167,289.91,82,60,0.0,NA,1727232607
567,katsuura,35.1333,140.3,294.16,83,97,10.4,JP,1727232821
568,andovoranto,-18.95,49.1,293.74,90,54,1.23,MG,1727232890
569,bamboo flat,11.7,92.7167,301.2,94,75,2.57,IN,1727232892
570,san juan de miraflores,-12.1629,-76.9635,290.47,84,96,5.11,PE,1727232893
571,glace bay,46.1969,-59.957,287.36,85,75,4.12,CA,1727232894
